[
    {
      "name": "PortOfDurrës",
      "city": "Durrës",
      "country": "Albania",
      "coordinates": [41.3141018733689, 19.455793508115793],
      "img": "https://www.countryflagicons.com/SHINY/64/AL.png",
      "key": 1
    },
    {
      "name": "PortofVlorë",
      "city": "Vlorë",
      "country": "Albania",
      "coordinates": [40.45228654035525, 19.48328735466331],
      "img": "https://www.countryflagicons.com/SHINY/64/AL.png",
      "key": 2
    },
    {
      "name": "PortofSarandë",
      "city": "Sarandë",
      "country": "Albania",
      "coordinates": [39.87157722155234, 20.003223156490336],
      "img": "https://www.countryflagicons.com/SHINY/64/AL.png",
      "key": 3
    },
    {
      "name": "PortofShëngjin",
      "city": "Shëngjin",
      "country": "Albania",
      "coordinates": [41.81211774245112, 19.58800554408741],
      "img": "https://www.countryflagicons.com/SHINY/64/AL.png",
      "key": 4
    },
    {
      "name": "PortofAlgiers",
      "city": "Algiers",
      "country": "Algeria",
      "coordinates": [36.76684462911829, 3.059819589371551],
      "img": "https://www.countryflagicons.com/SHINY/64/DZ.png",
      "key": 5
    },
    {
      "name": "PortofOran",
      "city": "Oran",
      "country": "Algeria",
      "coordinates": [35.71153937610891, -0.6401263079012373],
      "img": "https://www.countryflagicons.com/SHINY/64/DZ.png",
      "key": 6
    },
    {
      "name": "SkikdaNewPort",
      "city": "Skikda",
      "country": "Algeria",
      "coordinates": [36.882574268710506, 6.934633078289636],
      "img": "https://www.countryflagicons.com/SHINY/64/DZ.png",
      "key": 7
    },
    {
      "name": "PortofBejaia",
      "city": "Béjaïa",
      "country": "Algeria",
      "coordinates": [36.74605324699645, 5.07752353043574],
      "img": "https://www.countryflagicons.com/SHINY/64/DZ.png",
      "key": 8
    },
    {
      "name": "PortofAnnaba",
      "city": "Annaba",
      "country": "Algeria",
      "coordinates": [36.90246708673867, 7.773785299245946],
      "img": "https://www.countryflagicons.com/SHINY/64/DZ.png",
      "key": 9
    },
    {
      "name": "PortofArzew",
      "city": "Arzew",
      "country": "Algeria",
      "coordinates": [35.844064393103025, -0.30427378769995583],
      "img": "https://www.countryflagicons.com/SHINY/64/DZ.png",
      "key": 10
    },
    {
      "name": "PortofMostaganem",
      "city": "Mostaganem",
      "country": "Algeria",
      "coordinates": [35.935528776660824, 0.07691428808661248],
      "img": "https://www.countryflagicons.com/SHINY/64/DZ.png",
      "key": 11
    },
    {
      "name": "PagoPago",
      "city": "Fagatogo,EasternDistrict",
      "country": "AmericanSamoa",
      "coordinates": [-14.276183469872553, -170.6846073688938],
      "img": "https://www.countryflagicons.com/SHINY/64/AS.png",
      "key": 12
    },
    {
      "name": "PortofLuanda",
      "city": "Luanda",
      "country": "Angola",
      "coordinates": [-8.801992041643475, 13.242637211715044],
      "img": "https://www.countryflagicons.com/SHINY/64/AO.png",
      "key": 13
    },
    {
      "name": "PortofLobito",
      "city": "Lobito",
      "country": "Angola",
      "coordinates": [-12.345723017119225, 13.54629518852092],
      "img": "https://www.countryflagicons.com/SHINY/64/AO.png",
      "key": 14
    },
    {
      "name": "PortofCabinda",
      "city": "Cabinda",
      "country": "Angola",
      "coordinates": [-5.551190220012258, 12.193912583307704],
      "img": "https://www.countryflagicons.com/SHINY/64/AO.png",
      "key": 15
    },
    {
      "name": "PortofAntiguaandBarbuda",
      "city": "St.John's",
      "country": "AntiguaandBarbuda",
      "coordinates": [17.125662189332427, -61.85592977326126],
      "img": "https://www.countryflagicons.com/SHINY/64/AG.png",
      "key": 16
    },
    {
      "name": "PortofZárate",
      "city": "Zárate",
      "country": "Argentina",
      "coordinates": [-34.07366712744223, -59.04239200113622],
      "img": "https://www.countryflagicons.com/SHINY/64/AR.png",
      "key": 17
    },
    {
      "name": "PortofCampana",
      "city": "Campana",
      "country": "Argentina",
      "coordinates": [-34.140511985195616, -58.975618451308144],
      "img": "https://www.countryflagicons.com/SHINY/64/AR.png",
      "key": 18
    },
    {
      "name": "PortofBuenosAires",
      "city": "BuenosAiresCity",
      "country": "Argentina",
      "coordinates": [-34.617551613976296, -58.361970272251924],
      "img": "https://www.countryflagicons.com/SHINY/64/AR.png",
      "key": 19
    },
    {
      "name": "PortofDockSud",
      "city": "DockSud",
      "country": "Argentina",
      "coordinates": [-34.632741844478645, -58.34303730894103],
      "img": "https://www.countryflagicons.com/SHINY/64/AR.png",
      "key": 20
    },
    {
      "name": "PortofLaPlata",
      "city": "LaPlata",
      "country": "Argentina",
      "coordinates": [-34.58164483876678, -58.3659548095617],
      "img": "https://www.countryflagicons.com/SHINY/64/AR.png",
      "key": 21
    },
    {
      "name": "Ushuaia",
      "city": "Gerli",
      "country": "Argentina",
      "coordinates": [-34.685851252117324, -58.380696374097774],
      "img": "https://www.countryflagicons.com/SHINY/64/AR.png",
      "key": 22
    },
    {
      "name": "PortDeseado",
      "city": "Gerli",
      "country": "Argentina",
      "coordinates": [-47.74960248314876, -65.8983903816326],
      "img": "https://www.countryflagicons.com/SHINY/64/AR.png",
      "key": 23
    },
    {
      "name": "SanLorenzoport",
      "city": "SanLorenzo",
      "country": "Argentina",
      "coordinates": [-32.72040543641854, -60.73202745210543],
      "img": "https://www.countryflagicons.com/SHINY/64/AR.png",
      "key": 24
    },
    {
      "name": "PuertoRosario",
      "city": "Rosario",
      "country": "Argentina",
      "coordinates": [-32.971517255665795, -60.62056248765684],
      "img": "https://www.countryflagicons.com/SHINY/64/AR.png",
      "key": 25
    },
    {
      "name": "SantaFePort",
      "city": "SantaF",
      "country": "Argentina",
      "coordinates": [11.164752956418571, 123.80567946932786],
      "img": "https://www.countryflagicons.com/SHINY/64/AR.png",
      "key": 26
    },
    {
      "name": "MardelPlata",
      "city": "BuenosAires",
      "country": "Argentina",
      "coordinates": [-38.04127854162328, -57.54011210129921],
      "img": "https://www.countryflagicons.com/SHINY/64/AR.png",
      "key": 27
    },
    {
      "name": "PuertoMadrynport",
      "city": "PuertoMadryn",
      "country": "Argentina",
      "coordinates": [-42.76070299228177, -65.02446288210216],
      "img": "https://www.countryflagicons.com/SHINY/64/AR.png",
      "key": 28
    },
    {
      "name": "BahiaBlancaport",
      "city": "BahíaBlanca",
      "country": "Argentina",
      "coordinates": [-38.78501293053819, -62.268519165340244],
      "img": "https://www.countryflagicons.com/SHINY/64/AR.png",
      "key": 29
    },
    {
      "name": "Barcadera",
      "city": "Oranjestad",
      "country": "Aruba",
      "coordinates": [12.480050387089324, -69.99711306675455],
      "img": "https://www.countryflagicons.com/SHINY/64/AW.png",
      "key": 30
    },
    {
      "name": "Oranjestadport",
      "city": "Oranjestad",
      "country": "Aruba",
      "coordinates": [12.481670514224232, -69.99670218315737],
      "img": "https://www.countryflagicons.com/SHINY/64/AU.png",
      "key": 31
    },
    {
      "name": "PortAdelaide",
      "city": "SouthAustralia",
      "country": "Australia",
      "coordinates": [-34.81180784278695, 138.51818964417734],
      "img": "https://www.countryflagicons.com/SHINY/64/AU.png",
      "key": 32
    },
    {
      "name": "PortofDarwin",
      "city": "NorthernTerritory",
      "country": "Australia",
      "coordinates": [-14.09904009005318, 132.70108592655296],
      "img": "https://www.countryflagicons.com/SHINY/64/AU.png",
      "key": 33
    },
    {
      "name": "PortofTownsville",
      "city": "Townsville",
      "country": "Australia",
      "coordinates": [-19.251088876984863, 146.83444363862534],
      "img": "https://www.countryflagicons.com/SHINY/64/AU.png",
      "key": 34
    },
    {
      "name": "PortofMelbourne",
      "city": "Melbourne",
      "country": "Australia",
      "coordinates": [-37.821169980243006, 144.94325746595268],
      "img": "https://www.countryflagicons.com/SHINY/64/AU.png",
      "key": 35
    },
    {
      "name": "DampierPort",
      "city": "BurrupWA",
      "country": "Australia",
      "coordinates": [-20.650141770378596, 116.72544867694911],
      "img": "https://www.countryflagicons.com/SHINY/64/AU.png",
      "key": 36
    },
    {
      "name": "FremantlePort",
      "city": "Fremantle",
      "country": "Australia",
      "coordinates": [-32.05393821228268, 115.74144322686404],
      "img": "https://www.countryflagicons.com/SHINY/64/AU.png",
      "key": 37
    },
    {
      "name": "SydneyBridge",
      "city": "Sydney",
      "country": "Australia",
      "coordinates": [-30.202255906035568, 152.96859544085885],
      "img": "https://www.countryflagicons.com/SHINY/64/AU.png",
      "key": 38
    },
    {
      "name": "PortofBrisbane",
      "city": "Queensland",
      "country": "Australia",
      "coordinates": [-27.378313079572717, 153.17496693802164],
      "img": "https://www.countryflagicons.com/SHINY/64/AU.png",
      "key": 39
    },
    {
      "name": "BurniePort",
      "city": "Burnie",
      "country": "Australia",
      "coordinates": [-41.055735433485935, 145.90980976849625],
      "img": "https://www.countryflagicons.com/SHINY/64/AU.png",
      "key": 40
    },
    {
      "name": "bellbay",
      "city": "bellbay",
      "country": "Australia",
      "coordinates": [-41.134030894629326, 146.86473809250526],
      "img": "https://www.countryflagicons.com/SHINY/64/AU.png",
      "key": 41
    },
    {
      "name": "PortofNewcastle",
      "city": "Newcastle",
      "country": "Australia",
      "coordinates": [-32.925591396778536, 151.77732607430738],
      "img": "https://www.countryflagicons.com/SHINY/64/AU.png",
      "key": 42
    },
    {
      "name": "EnnsPort",
      "city": "Ennsdorf",
      "country": "Austria",
      "coordinates": [48.225208594893296, 14.500930726143148],
      "img": "https://www.countryflagicons.com/SHINY/64/AT.png",
      "key": 43
    },
    {
      "name": "LinzPort",
      "city": "Linz",
      "country": "Austria",
      "coordinates": [48.313212677462595, 14.313849997311468],
      "img": "https://www.countryflagicons.com/SHINY/64/AT.png",
      "key": 44
    },
    {
      "name": "SalzburgPort",
      "city": "Salzburg",
      "country": "Austria",
      "coordinates": [47.802323069334875, 13.041697397469344],
      "img": "https://www.countryflagicons.com/SHINY/64/AT.png",
      "key": 45
    },
    {
      "name": "ViennaPort",
      "city": "Wien",
      "country": "Austria",
      "coordinates": [48.18356800458439, 16.471020404761678],
      "img": "https://www.countryflagicons.com/SHINY/64/AT.png",
      "key": 46
    },
    {
      "name": "WelsPort",
      "city": "Wels",
      "country": "Austria",
      "coordinates": [48.16440487740529, 14.05911673170049],
      "img": "https://www.countryflagicons.com/SHINY/64/AT.png",
      "key": 47
    },
    {
      "name": "WienPort",
      "city": "Wien",
      "country": "Austria",
      "coordinates": [48.17740047348847, 16.472737020109506],
      "img": "https://www.countryflagicons.com/SHINY/64/AT.png",
      "key": 48
    },
    {
      "name": "PortOfBaku",
      "city": "Baku",
      "country": "Azerbaijan",
      "coordinates": [40.0066141148611, 49.43739849577485],
      "img": "https://www.countryflagicons.com/SHINY/64/AZ.png",
      "key": 49
    },
    {
      "name": "NassauBahamasport",
      "city": "Nassau",
      "country": "Bahamas",
      "coordinates": [25.08140011609712, -77.3403958722288],
      "img": "https://www.countryflagicons.com/SHINY/64/BS.png",
      "key": 50
    },
    {
      "name": "Freeport",
      "city": "WildGooseTown",
      "country": "Bahamas",
      "coordinates": [26.529016112980713, -78.77372250893929],
      "img": "https://www.countryflagicons.com/SHINY/64/BS.png",
      "key": 51
    },
    {
      "name": "SalmanPort",
      "city": "Manama",
      "country": "Bahrain",
      "coordinates": [26.201662220938918, 50.61559407378524],
      "img": "https://www.countryflagicons.com/SHINY/64/BH.png",
      "key": 52
    },
    {
      "name": "MinaSalman",
      "city": "Manama",
      "country": "Bahrain",
      "coordinates": [26.205358699987176, 50.61336247600116],
      "img": "https://www.countryflagicons.com/SHINY/64/BH.png",
      "key": 53
    },
    {
      "name": "DhakaPort",
      "city": "Dhaka",
      "country": "Bangladesh",
      "coordinates": [23.710739239450216, 90.40972917580586],
      "img": "https://www.countryflagicons.com/SHINY/64/BD.png",
      "key": 54
    },
    {
      "name": "MonglaPort",
      "city": "Mongla",
      "country": "Bangladesh",
      "coordinates": [22.49665517056795, 89.59057522384755],
      "img": "https://www.countryflagicons.com/SHINY/64/BD.png",
      "key": 55
    },
    {
      "name": "ChittagongPort",
      "city": "Chattogram",
      "country": "Bangladesh",
      "coordinates": [22.444630081519378, 91.7892915201662],
      "img": "https://www.countryflagicons.com/SHINY/64/BD.png",
      "key": 56
    },
    {
      "name": "BridgetownPort",
      "city": "Bridgetown",
      "country": "Barbados",
      "coordinates": [22.444630081519378, 91.7892915201662],
      "img": "https://www.countryflagicons.com/SHINY/64/BB.png",
      "key": 57
    },
    {
      "name": "PortofBrussels",
      "city": "Bruxelles",
      "country": "Belgium",
      "coordinates": [50.86513360152727, 4.350930182083679],
      "img": "https://www.countryflagicons.com/SHINY/64/BE.png",
      "key": 58
    },
    {
      "name": "AntwerpenPort",
      "city": "Antwerpen",
      "country": "Belgium",
      "coordinates": [51.24432230076115, 4.410636887109108],
      "img": "https://www.countryflagicons.com/SHINY/64/BE.png",
      "key": 59
    },
    {
      "name": "LiègePort",
      "city": "Liège",
      "country": "Belgium",
      "coordinates": [50.6470396152797, 5.584711468580241],
      "img": "https://www.countryflagicons.com/SHINY/64/BE.png",
      "key": 60
    },
    {
      "name": "Ghentport",
      "city": "Ghent",
      "country": "Belgium",
      "coordinates": [51.10654964460401, 3.7498405551077716],
      "img": "https://www.countryflagicons.com/SHINY/64/BE.png",
      "key": 61
    },
    {
      "name": "GenkPort",
      "city": "Genk",
      "country": "Belgium",
      "coordinates": [50.98192703465972, 5.477091230320957],
      "img": "https://www.countryflagicons.com/SHINY/64/BE.png",
      "key": 62
    },
    {
      "name": "ZeebruggePort",
      "city": "Brugge",
      "country": "Belgium",
      "coordinates": [51.3363289111137, 3.2079608727002076],
      "img": "https://www.countryflagicons.com/SHINY/64/BE.png",
      "key": 63
    },
    {
      "name": "PortofBelize",
      "city": "BelizeCity",
      "country": "Belize",
      "coordinates": [17.48298559589275, -88.20191987399922],
      "img": "https://www.countryflagicons.com/SHINY/64/BZ.png",
      "key": 64
    },
    {
      "name": "BelizeCity",
      "city": "BelizeCity",
      "country": "Belize",
      "coordinates": [17.47627247302096, -88.20732720709145],
      "img": "https://www.countryflagicons.com/SHINY/64/BZ.png",
      "key": 65
    },
    {
      "name": "Cotonou",
      "city": "Cotonou",
      "country": "Benin",
      "coordinates": [6.350237962710998, 2.428207280196979],
      "img": "https://www.countryflagicons.com/SHINY/64/BJ.png",
      "key": 66
    },
    {
      "name": "Cochabamba",
      "city": "Cochabamba",
      "country": "Bolivia",
      "coordinates": [-17.405137423652445, -66.14295649996959],
      "img": "https://www.countryflagicons.com/SHINY/64/BO.png",
      "key": 67
    },
    {
      "name": "PortofSantos",
      "city": "Santos",
      "country": "Brazil",
      "coordinates": [-23.965854504967623, -46.301868601451254],
      "img": "https://www.countryflagicons.com/SHINY/64/BR.png",
      "key": 68
    },
    {
      "name": "SãoSebastião",
      "city": ",RiodeJaneiro",
      "country": "Brazil",
      "coordinates": [-23.81057892331696, -45.39821491147051],
      "img": "https://www.countryflagicons.com/SHINY/64/BR.png",
      "key": 69
    },
    {
      "name": "SEPETIBA",
      "city": "Sepetiba",
      "country": "Brazil",
      "coordinates": [-22.964601908829707, -43.70005141816537],
      "img": "https://www.countryflagicons.com/SHINY/64/BR.png",
      "key": 70
    },
    {
      "name": "Paranaguáport",
      "city": "Paranaguá",
      "country": "Brazil",
      "coordinates": [-24.055268604834847, -49.35057116568099],
      "img": "https://www.countryflagicons.com/SHINY/64/BR.png",
      "key": 71
    },
    {
      "name": "PortRiodeJaneiro",
      "city": "RiodeJaneiro",
      "country": "Brazil",
      "coordinates": [-22.89370430924862, -43.183471564748224],
      "img": "https://www.countryflagicons.com/SHINY/64/BR.png",
      "key": 72
    },
    {
      "name": "ItapoáPort",
      "city": "Itapoá",
      "country": "Brazil",
      "coordinates": [-26.180778646069452, -48.60174110508116],
      "img": "https://www.countryflagicons.com/SHINY/64/BR.png",
      "key": 73
    },
    {
      "name": "SaoFrancisco",
      "city": "SãoFrancisco",
      "country": "Brazil",
      "coordinates": [-12.366573844324147, -38.48515745195184],
      "img": "https://www.countryflagicons.com/SHINY/64/BR.png",
      "key": 74
    },
    {
      "name": "VitóriaPort",
      "city": "Vitória",
      "country": "Brazil",
      "coordinates": [-19.67935623093577, -40.44137500839299],
      "img": "https://www.countryflagicons.com/SHINY/64/BR.png",
      "key": 75
    },
    {
      "name": "ItajaíPort",
      "city": "Itajaí",
      "country": "Brazil",
      "coordinates": [-26.900565099471827, -48.66645974069163],
      "img": "https://www.countryflagicons.com/SHINY/64/BR.png",
      "key": 76
    },
    {
      "name": "ViladoCondePort",
      "city": "ViladoConde",
      "country": "Brazil",
      "coordinates": [41.3522450838653, -8.743124660718186],
      "img": "https://www.countryflagicons.com/SHINY/64/BR.png",
      "key": 77
    },
    {
      "name": "SofiaPort",
      "city": "Sofia",
      "country": "Bulgaria",
      "coordinates": [42.76290951816064, 23.322577927557514],
      "img": "https://www.countryflagicons.com/SHINY/64/BG.png",
      "key": 78
    },
    {
      "name": "PortofBurgas",
      "city": "Burgas",
      "country": "Bulgaria",
      "coordinates": [42.489607374459986, 27.477688124881606],
      "img": "https://www.countryflagicons.com/SHINY/64/BG.png",
      "key": 79
    },
    {
      "name": "PortVarna",
      "city": "Varna",
      "country": "Bulgaria",
      "coordinates": [43.197385360410124, 27.914716811148466],
      "img": "https://www.countryflagicons.com/SHINY/64/BG.png",
      "key": 80
    },
    {
      "name": "PhnomPenhPort",
      "city": "PhnomPenh",
      "country": "Cambodia",
      "coordinates": [11.58311802304409, 104.9214456809764],
      "key": 81
    },
    {
      "name": "Sihanoukville",
      "city": "Sihanoukville",
      "country": "Cambodia",
      "coordinates": [10.663660662304947, 103.50574917833215],
      "key": 82
    },
    {
      "name": "KampongSom",
      "city": "KampongSom",
      "country": "Cambodia",
      "coordinates": [10.648814978162765, 103.49888272361186],
      "key": 83
    },
    {
      "name": "PortAuthorityofDouala",
      "city": "Douala",
      "country": "Cameroon",
      "coordinates": [4.061904062010332, 9.696691845508186],
      "img": "https://www.countryflagicons.com/SHINY/64/CM.png",
      "key": 84
    },
    {
      "name": "SaskatoonPort",
      "city": "Saskatoon",
      "country": "Canada",
      "coordinates": [52.13150643206704, -106.65401859053745],
      "img": "https://www.countryflagicons.com/SHINY/64/CA.png",
      "key": 85
    },
    {
      "name": "EdmontonPort",
      "city": "Edmonton",
      "country": "Canada",
      "coordinates": [53.51581808903249, -113.53762971727113],
      "img": "https://www.countryflagicons.com/SHINY/64/CA.png",
      "key": 86
    },
    {
      "name": "ReginaPort",
      "city": "Regina",
      "country": "Canada",
      "coordinates": [50.40792773680027, -104.65881782958215],
      "img": "https://www.countryflagicons.com/SHINY/64/CA.png",
      "key": 87
    },
    {
      "name": "CalgaryPort",
      "city": "Calgary",
      "country": "Canada",
      "coordinates": [51.15290345288142, -113.97279731882436],
      "img": "https://www.countryflagicons.com/SHINY/64/CA.png",
      "key": 88
    },
    {
      "name": "WinnipegPort",
      "city": "Winnipeg",
      "country": "Canada",
      "coordinates": [49.88865310000218, -97.1297816953071],
      "img": "https://www.countryflagicons.com/SHINY/64/CA.png",
      "key": 89
    },
    {
      "name": "PortofVancouver",
      "city": "Vancouver",
      "country": "Canada",
      "coordinates": [49.29418058713986, -123.11249997250232],
      "img": "https://www.countryflagicons.com/SHINY/64/CA.png",
      "key": 90
    },
    {
      "name": "FraserSurreyDocks",
      "city": "Surrey",
      "country": "Canada",
      "coordinates": [49.178470246883386, -122.91678785847303],
      "img": "https://www.countryflagicons.com/SHINY/64/CA.png",
      "key": 91
    },
    {
      "name": "Centerm",
      "city": "Vancouver",
      "country": "Canada",
      "coordinates": [49.28700817519715, -123.08898330264564],
      "img": "https://www.countryflagicons.com/SHINY/64/CA.png",
      "key": 92
    },
    {
      "name": "VancouverCentermTerminal",
      "city": "Vancouver",
      "country": "Canada",
      "coordinates": [49.28841001097114, -123.093434489152],
      "img": "https://www.countryflagicons.com/SHINY/64/CA.png",
      "key": 93
    },
    {
      "name": "PortoPraia",
      "city": "Praia",
      "country": "CapeVerde",
      "coordinates": [14.912834570465865, -23.50026294887273],
      "img": "https://www.countryflagicons.com/SHINY/64/CV.png",
      "key": 94
    },
    {
      "name": "PortoGrande",
      "city": "CaboVerde",
      "country": "CapeVerde",
      "coordinates": [16.895602458319512, -25.00459176643773],
      "img": "https://www.countryflagicons.com/SHINY/64/BE.png",
      "key": 95
    },
    {
      "name": "GeorgeTownPort",
      "city": "GeorgeTown",
      "country": "CaymanIslands",
      "coordinates": [19.295536510463457, -81.38314468919145],
      "img": "https://www.countryflagicons.com/SHINY/64/KY.png",
      "key": 96
    },
    {
      "name": "PortofBangui",
      "city": "Bangui",
      "country": "CentralAfricanRepublic",
      "coordinates": [4.357126258726692, 18.577211467450518],
      "img": "https://www.countryflagicons.com/SHINY/64/CF.png",
      "key": 97
    },
    {
      "name": "PortLirquén",
      "city": "BahiadeConcepcion",
      "country": "Chile",
      "coordinates": [-36.714427936341956, -72.98138561666858],
      "img": "https://www.countryflagicons.com/SHINY/64/CL.png",
      "key": 98
    },
    {
      "name": "TalcahuanoPort",
      "city": "Talcahuano",
      "country": "Chile",
      "coordinates": [-36.71405044219594, -73.1096334925888],
      "img": "https://www.countryflagicons.com/SHINY/64/CL.png",
      "key": 99
    },
    {
      "name": "SanVicentePort",
      "city": "Penco",
      "country": "Chile",
      "coordinates": [-36.74649084038774, -73.0016353181932],
      "img": "https://www.countryflagicons.com/SHINY/64/CL.png",
      "key": 100
    },
    {
      "name": "PuertodeCoronel",
      "city": "CoronelChile",
      "country": "Chile",
      "coordinates": [-37.03251009190789, -73.16710469446937],
      "img": "https://www.countryflagicons.com/SHINY/64/CL.png",
      "key": 101
    },
    {
      "name": "SanAntonioPort",
      "city": "SanAntonio",
      "country": "Chile",
      "coordinates": [-33.573321054930574, -71.62615388628554],
      "img": "https://www.countryflagicons.com/SHINY/64/CL.png",
      "key": 102
    },
    {
      "name": "PortofValparaíso",
      "city": "Valparaíso",
      "country": "Chile",
      "coordinates": [-33.0246032780306, -71.61658091566096],
      "img": "https://www.countryflagicons.com/SHINY/64/CL.png",
      "key": 103
    },
    {
      "name": "PuertoChacabuco",
      "city": "Aysén",
      "country": "Chile",
      "coordinates": [-45.466690945226986, -72.8193348395489],
      "img": "https://www.countryflagicons.com/SHINY/64/CL.png",
      "key": 104
    },
    {
      "name": "PuertoAntofagasta",
      "city": "Antofagasta",
      "country": "Chile",
      "coordinates": [-23.06935840820784, -70.38591691067265],
      "img": "https://www.countryflagicons.com/SHINY/64/CL.png",
      "key": 105
    },
    {
      "name": "AnqingPort",
      "city": "Anhui",
      "country": "china",
      "coordinates": [30.500960104975803, 117.04893380752134],
      "img": "https://www.countryflagicons.com/SHINY/64/CN.png",
      "key": 106
    },
    {
      "name": "XiamenPort",
      "city": "Xiamen",
      "country": "china",
      "coordinates": [24.420257156188143, 118.06788995819674],
      "img": "https://www.countryflagicons.com/SHINY/64/CN.png",
      "key": 107
    },
    {
      "name": "DafengPort",
      "city": "Yancheng",
      "country": "china",
      "coordinates": [33.27284010269469, 120.7941082882039],
      "img": "https://www.countryflagicons.com/SHINY/64/CN.png",
      "key": 108
    },
    {
      "name": "WuhuPort",
      "city": "Anhui",
      "country": "China",
      "coordinates": [31.38835090300092, 118.36021056785633],
      "img": "https://www.countryflagicons.com/SHINY/64/CN.png",
      "key": 109
    },
    {
      "name": "PortofZhenjiang",
      "city": "Jiangsu",
      "country": "China",
      "coordinates": [32.18799059274906, 119.41980021205711],
      "img": "https://www.countryflagicons.com/SHINY/64/CN.png",
      "key": 110
    },
    {
      "name": "BUENAVENTURAPORT",
      "city": "Buenaventura",
      "country": "Colombia",
      "coordinates": [3.893321606185633, -77.06797999022069],
      "img": "https://www.countryflagicons.com/SHINY/64/CO.png",
      "key": 111
    },
    {
      "name": "TurboPort",
      "city": "Antioquia",
      "country": "Colombia",
      "coordinates": [9.09444774252658, -76.20107821124837],
      "img": "https://www.countryflagicons.com/SHINY/64/CO.png",
      "key": 112
    },
    {
      "name": "PortofCartagena",
      "city": "Cartagena",
      "country": "Colombia",
      "coordinates": [10.405486285229399, -75.52866951718426],
      "img": "https://www.countryflagicons.com/SHINY/64/CO.png",
      "key": 113
    },
    {
      "name": "PuertodeBarranquilla",
      "city": "OrilladelRío",
      "country": "Colombia",
      "coordinates": [10.96735128920065, -74.76560564601556],
      "img": "https://www.countryflagicons.com/SHINY/64/CO.png",
      "key": 114
    },
    {
      "name": "PuertodeSantaMarta",
      "city": "SantaMarta,",
      "country": "Colombia",
      "coordinates": [11.247828516593655, -74.21402109019087],
      "img": "https://www.countryflagicons.com/SHINY/64/CO.png",
      "key": 115
    },
    {
      "name": "MoroniHarbourPort",
      "city": "Moroni",
      "country": "Comoros",
      "coordinates": [-11.705065056850405, 43.24853772710113],
      "img": "https://www.countryflagicons.com/SHINY/64/KM.png",
      "key": 116
    },
    {
      "name": "MutsamuduPort",
      "city": "Mutsamudu",
      "country": "Comoros",
      "coordinates": [-12.166899061920637, 44.39307509916608],
      "img": "https://www.countryflagicons.com/SHINY/64/CO.png",
      "key": 117
    },
    {
      "name": "AvatiuPort",
      "city": "CookIslands",
      "country": "CookIslands",
      "coordinates": [-21.20340854238814, -159.78535940272616],
      "img": "https://www.countryflagicons.com/SHINY/64/CK.png",
      "key": 118
    },
    {
      "name": "PuertoMoínPort",
      "city": "Moín",
      "country": "CostaRica",
      "coordinates": [10.00425411862496, -83.07680287670647],
      "img": "https://www.countryflagicons.com/SHINY/64/CR.png",
      "key": 119
    },
    {
      "name": "PuertoLimonPort",
      "city": "Limon",
      "country": "CostaRica",
      "coordinates": [9.99169927949239, -83.02695761975274],
      "img": "https://www.countryflagicons.com/SHINY/64/CR.png",
      "key": 120
    },
    {
      "name": "CalderaPort",
      "city": "EspírituSanto",
      "country": "CostaRica",
      "coordinates": [9.934929212609322, -84.72420208438068],
      "img": "https://www.countryflagicons.com/SHINY/64/CR.png",
      "key": 121
    },
    {
      "name": "PortofSanJose",
      "city": "SanJosé",
      "country": "CostaRica",
      "coordinates": [13.92175710561159, -90.83868407808667],
      "img": "https://www.countryflagicons.com/SHINY/64/CR.png",
      "key": 122
    },
    {
      "name": "PortRijeka",
      "city": "Bakar",
      "country": "Croatia",
      "coordinates": [45.325512140793045, 14.437187456703711],
      "img": "https://www.countryflagicons.com/SHINY/64/HR.png",
      "key": 123
    },
    {
      "name": "KatarinaLineSplitPORT",
      "city": "Split",
      "country": "Croatia",
      "coordinates": [43.50689007579237, 16.440073070123173],
      "img": "https://www.countryflagicons.com/SHINY/64/HR.png",
      "key": 124
    },
    {
      "name": "PortofPloče",
      "city": "Ploče",
      "country": "Croatia",
      "coordinates": [43.0409981954273, 17.421153970435668],
      "img": "https://www.countryflagicons.com/SHINY/64/HR.png",
      "key": 125
    },
    {
      "name": "DubrovnikCruisePort",
      "city": "Dubrovnik",
      "country": "Croatia",
      "coordinates": [42.662682855898495, 18.082806366392866],
      "img": "https://www.countryflagicons.com/SHINY/64/HR.png",
      "key": 126
    },
    {
      "name": "SantiagoDeCuba",
      "city": "SantiagodeCuba",
      "country": "Cuba",
      "coordinates": [20.022359524415382, -75.83702754405297],
      "img": "https://www.countryflagicons.com/SHINY/64/CU.png",
      "key": 127
    },
    {
      "name": "portofHavana",
      "city": "LaHabana",
      "country": "Cuba",
      "coordinates": [23.141775065655317, -82.37324368817104],
      "img": "https://www.countryflagicons.com/SHINY/64/CU.png",
      "key": 128
    },
    {
      "name": "PortofMariel",
      "city": "Mariel",
      "country": "Cuba",
      "coordinates": [22.995397733880562, -82.75272117837751],
      "img": "https://www.countryflagicons.com/SHINY/64/CU.png",
      "key": 129
    },
    {
      "name": "LimassolPort",
      "city": "Limassol",
      "country": "Cuba",
      "coordinates": [34.65234185893404, 33.01258210658765],
      "img": "https://www.countryflagicons.com/SHINY/64/CU.png",
      "key": 130
    },
    {
      "name": "PortofAarhus",
      "city": "Aarhus",
      "country": "Denmark",
      "coordinates": [56.166312002689565, 10.227307949164084],
      "img": "https://www.countryflagicons.com/SHINY/64/DK.png",
      "key": 131
    },
    {
      "name": "PortFredericia",
      "city": "Fredericia",
      "country": "Denmark",
      "coordinates": [55.5674752359755, 9.752219057168242],
      "img": "https://www.countryflagicons.com/SHINY/64/DK.png",
      "key": 132
    },
    {
      "name": "PortKoldingHavn",
      "city": "Kolding",
      "country": "Denmark",
      "coordinates": [55.490625826328326, 9.48598256880949],
      "img": "https://www.countryflagicons.com/SHINY/64/DK.png",
      "key": 133
    },
    {
      "name": "PortofAalborg",
      "city": "Aalborg",
      "country": "Denmark",
      "coordinates": [57.047937509170616, 10.04984341714665],
      "img": "https://www.countryflagicons.com/SHINY/64/DK.png",
      "key": 134
    },
    {
      "name": "PortEsbjerg",
      "city": "Esbjerg",
      "country": "Denmark",
      "coordinates": [55.4645154128248, 8.445805222905975],
      "img": "https://www.countryflagicons.com/SHINY/64/DK.png",
      "key": 135
    },
    {
      "name": "KalundborgPort",
      "city": "Kalundborg",
      "country": "Denmark",
      "coordinates": [55.67378953078093, 11.10212623746257],
      "img": "https://www.countryflagicons.com/SHINY/64/DK.png",
      "key": 136
    },
    {
      "name": "PortCopenhagen",
      "city": "Copenhagen",
      "country": "Denmark",
      "coordinates": [55.672745611723165, 12.586266535241709],
      "img": "https://www.countryflagicons.com/SHINY/64/DK.png",
      "key": 137
    },
    {
      "name": "PortofStockholm",
      "city": "Nynäshamn",
      "country": "sweden",
      "coordinates": [58.90917742153583, 17.95962518432283],
      "img": "https://www.countryflagicons.com/SHINY/64/CN.png",
      "key": 138
    },
    {
      "name": "PortRioHaina",
      "city": "RioHaina",
      "country": "DominicanRepublic",
      "coordinates": [18.43207954717347, -70.00883774187702],
      "img": "https://www.countryflagicons.com/SHINY/64/DK.png",
      "key": 139
    },
    {
      "name": "SantoDomingoport",
      "city": "SantoDomingo",
      "country": "DominicanRepublic",
      "coordinates": [18.46904058324596, -69.88326938372818],
      "img": "https://www.countryflagicons.com/SHINY/64/CN.png",
      "key": 140
    },
    {
      "name": "PortCaucedo",
      "city": "PuntaCaucedo",
      "country": "DominicanRepublic",
      "coordinates": [18.431630580133703, -69.63283269089325],
      "img": "https://www.countryflagicons.com/SHINY/64/CN.png",
      "key": 141
    },
    {
      "name": "PortDeDjibouti",
      "city": "AveGeneralGalleni",
      "country": "Djibouti",
      "coordinates": [11.60883940106029, 43.14253836748313],
      "img": "https://www.countryflagicons.com/SHINY/64/CN.png",
      "key": 142
    },
    {
      "name": "PortGuayaquil",
      "city": "Guayaquil",
      "country": "Ecuador",
      "coordinates": [-2.277745147457283, -79.90791867287122],
      "img": "https://www.countryflagicons.com/SHINY/64/EC.png",
      "key": 143
    },
    {
      "name": "PortPosorja",
      "city": "Posorja",
      "country": "Ecuador",
      "coordinates": [-2.67071416360151, -80.2550074158888],
      "img": "https://www.countryflagicons.com/SHINY/64/EC.png",
      "key": 144
    },
    {
      "name": "EinElSokhnaPort",
      "city": "SuezGovernorate",
      "country": "Egypt",
      "coordinates": [29.649226824039207, 32.356008967201],
      "img": "https://www.countryflagicons.com/SHINY/64/EG.png",
      "key": 145
    },
    {
      "name": "SokhnaPort",
      "city": "SuezGovernorate",
      "country": "Egypt",
      "coordinates": [29.658064500300988, 32.34391264727285],
      "img": "https://www.countryflagicons.com/SHINY/64/EG.png",
      "key": 146
    },
    {
      "name": "SuezCanalPort",
      "city": "Suez",
      "country": "Egypt",
      "coordinates": [29.935401280556885, 32.55566619117386],
      "img": "https://www.countryflagicons.com/SHINY/64/EG.png",
      "key": 147
    },
    {
      "name": "ELDEKHEILAPort",
      "city": "Dekhela",
      "country": "Egypt",
      "coordinates": [31.143101434323818, 29.79082357251648],
      "img": "https://www.countryflagicons.com/SHINY/64/EG.png",
      "key": 148
    },
    {
      "name": "AlexandriaPort",
      "city": "Alexandria",
      "country": "Egypt",
      "coordinates": [31.176790887141685, 29.862415491176623],
      "img": "https://www.countryflagicons.com/SHINY/64/EG.png",
      "key": 149
    },
    {
      "name": "PortSaid",
      "city": "northeasternEgypt",
      "country": "Egypt",
      "coordinates": [31.264793455176186, 32.304223045356714],
      "img": "https://www.countryflagicons.com/SHINY/64/EG.png",
      "key": 150
    },
    {
      "name": "DamiettaPort",
      "city": "Damietta",
      "country": "Egypt",
      "coordinates": [31.472349899415704, 31.761170446971114],
      "img": "https://www.countryflagicons.com/SHINY/64/EG.png",
      "key": 151
    },
    {
      "name": "PuertodeAcajutla",
      "city": "Acajutla",
      "country": "ElSalvador",
      "coordinates": [13.577013642771096, -89.83444583203287],
      "img": "https://www.countryflagicons.com/SHINY/64/SV.png",
      "key": 152
    },
    {
      "name": "PuertosdeBata",
      "city": "Bata",
      "country": "EquatorialGuinea",
      "coordinates": [1.8268558240760389, 9.74278410970787],
      "img": "https://www.countryflagicons.com/SHINY/64/GQ.png",
      "key": 153
    },
    {
      "name": "LUBAport",
      "city": "LUBA",
      "country": "EquatorialGuinea",
      "coordinates": [3.4579697155836455, 8.54416575673733],
      "img": "https://www.countryflagicons.com/SHINY/64/GQ.png",
      "key": 154
    },
    {
      "name": "PortdeMalabo",
      "city": "Malabo",
      "country": "EquatorialGuinea",
      "coordinates": [3.7579047404568087, 8.780847253956864],
      "img": "https://www.countryflagicons.com/SHINY/64/GQ.png",
      "key": 155
    },
    {
      "name": "MassawaPort",
      "city": "Mitsiwa",
      "country": "Eritrea",
      "coordinates": [15.608188549873471, 39.46683342334805],
      "img": "https://www.countryflagicons.com/SHINY/64/ER.png",
      "key": 156
    },
    {
      "name": "PortofTallinn",
      "city": "Tallinn",
      "country": "Estonia",
      "coordinates": [59.44797198597006, 24.763500159385305],
      "img": "https://www.countryflagicons.com/SHINY/64/EE.png",
      "key": 157
    },
    {
      "name": "PaldiskiPort",
      "city": "Paldiski",
      "country": "Estonia",
      "coordinates": [59.33524037609502, 24.07630212799382],
      "img": "https://www.countryflagicons.com/SHINY/64/EE.png",
      "key": 158
    },
    {
      "name": "Luderitz",
      "city": "Luderitz",
      "country": "Namibia",
      "coordinates": [-26.643877501343084, 15.144701842154946],
      "img": "https://www.countryflagicons.com/SHINY/64/NA.png",
      "key": 159
    },
    {
      "name": "WalvisBay",
      "city": "WalvisBay",
      "country": "Namibia",
      "coordinates": [-22.95381124866392, 14.491153990849481],
      "img": "https://www.countryflagicons.com/SHINY/64/NA.png",
      "key": 160
    },
    {
      "name": "Noumea",
      "city": "Noumea",
      "country": "NewCaledonia",
      "coordinates": [-22.264850947830823, 166.43396739249144],
      "img": "https://www.countryflagicons.com/SHINY/64/NC.png",
      "key": 161
    },
    {
      "name": "Onne",
      "city": "Onne",
      "country": "Nigeria",
      "coordinates": [-22.95381124866392, 14.491153990849481],
      "img": "https://www.countryflagicons.com/SHINY/64/NG.png",
      "key": 162
    },
    {
      "name": "Apapa",
      "city": "Apapa",
      "country": "Nigeria",
      "coordinates": [6.462241724849683, 3.371812224646625],
      "img": "https://www.countryflagicons.com/SHINY/64/NG.png",
      "key": 163
    },
    {
      "name": "Lagos",
      "city": "Lagos",
      "country": "Nigeria",
      "coordinates": [6.458997574626128, 3.3712972015940608],
      "img": "https://www.countryflagicons.com/SHINY/64/NG.png",
      "key": 164
    },
    {
      "name": "TinCanIslandPort",
      "city": "TinCanIsland",
      "country": "Nigeria",
      "coordinates": [6.4345583186011135, 3.3562172097829635],
      "img": "https://www.countryflagicons.com/SHINY/64/NG.png",
      "key": 165
    },
    {
      "name": "Wellingtonport",
      "city": "Wellington",
      "country": "NewZealand",
      "coordinates": [-41.28245460316474, 174.83361217829818],
      "img": "https://www.countryflagicons.com/SHINY/64/NZ.png",
      "key": 166
    },
    {
      "name": "NewNelson",
      "city": "Nelson",
      "country": "NewZealand",
      "coordinates": [-41.26087929890133, 173.27499067222806],
      "img": "https://www.countryflagicons.com/SHINY/64/NZ.png",
      "key": 167
    },
    {
      "name": "Napier",
      "city": "Napier",
      "country": "NewZealand",
      "coordinates": [-39.48058704670491, 176.92177839542583],
      "img": "https://www.countryflagicons.com/SHINY/64/NZ.png",
      "key": 168
    },
    {
      "name": "LytteltonChristchurch",
      "city": "Christchurch",
      "country": "NewZealand",
      "coordinates": [-43.56565850448274, 172.68647404459387],
      "img": "https://www.countryflagicons.com/SHINY/64/NZ.png",
      "key": 169
    },
    {
      "name": "Lyttelton",
      "city": "Lyttelton",
      "country": "NewZealand",
      "coordinates": [-43.55903438423815, 172.6855275846886],
      "img": "https://www.countryflagicons.com/SHINY/64/NZ.png",
      "key": 170
    },
    {
      "name": "Tauranga",
      "city": "Tauranga",
      "country": "NewZealand",
      "coordinates": [-37.62260789348495, 176.195798277663],
      "img": "https://www.countryflagicons.com/SHINY/64/NZ.png",
      "key": 171
    },
    {
      "name": "Auckland",
      "city": "Auckland",
      "country": "NewZealand",
      "coordinates": [-37.632206547537436, 175.187154706249],
      "img": "https://www.countryflagicons.com/SHINY/64/NZ.png",
      "key": 172
    },
    {
      "name": "PrimePortTimaru",
      "city": "Timaru",
      "country": "NewZealand",
      "coordinates": [-44.3922295404784, 171.25289659748321],
      "img": "https://www.countryflagicons.com/SHINY/64/NZ.png",
      "key": 173
    },
    {
      "name": "Chalmers",
      "city": "Dunedin",
      "country": "NewZealand",
      "coordinates": [-45.82348017130169, 170.62010389885555],
      "img": "https://www.countryflagicons.com/SHINY/64/NZ.png",
      "key": 174
    },
    {
      "name": "Bluff",
      "city": "NewZealandtownofBluff",
      "country": "NewZealand",
      "coordinates": [-46.57419207236862, 168.3497820002926],
      "img": "https://www.countryflagicons.com/SHINY/64/NZ.png",
      "key": 175
    },
    {
      "name": "Amsterdam",
      "city": "Amsterdam",
      "country": "Netherlands",
      "coordinates": [52.387183927967364, 4.90701462100004],
      "img": "https://www.countryflagicons.com/SHINY/64/NL.png",
      "key": 176
    },
    {
      "name": "Rotterdam",
      "city": "Rotterdam",
      "country": "Netherlands",
      "coordinates": [51.94969996328781, 4.145252268640208],
      "img": "https://www.countryflagicons.com/SHINY/64/NL.png",
      "key": 177
    },
    {
      "name": "SchiedamHarbour",
      "city": "Schiedam",
      "country": "Netherlands",
      "coordinates": [51.907056895674565, 4.4710359956252255],
      "img": "https://www.countryflagicons.com/SHINY/64/NL.png",
      "key": 178
    },
    {
      "name": "Willemstad",
      "city": "Curaçao",
      "country": "Netherlands",
      "coordinates": [51.69085112212037, 4.4571837858588115],
      "img": "https://www.countryflagicons.com/SHINY/64/NL.png",
      "key": 179
    },
    {
      "name": "DenHelder",
      "city": "DenHelder",
      "country": "Netherlands",
      "coordinates": [52.95701783147908, 4.779628454949667],
      "img": "https://www.countryflagicons.com/SHINY/64/NL.png",
      "key": 180
    },
    {
      "name": "Harlingen",
      "city": "Harlingen",
      "country": "Netherlands",
      "coordinates": [53.17737693638909, 5.411549011923784],
      "img": "https://www.countryflagicons.com/SHINY/64/NL.png",
      "key": 181
    },
    {
      "name": "Vlissingen",
      "city": "Vlissingen",
      "country": "Netherlands",
      "coordinates": [51.445683832128324, 3.5760881964778095],
      "img": "https://www.countryflagicons.com/SHINY/64/NL.png",
      "key": 182
    },
    {
      "name": "Corinto",
      "city": "Corinto",
      "country": "Nicaragua",
      "coordinates": [12.480965453747254, -87.1706547853814],
      "img": "https://www.countryflagicons.com/SHINY/64/NI.png",
      "key": 183
    },
    {
      "name": "Drammen",
      "city": "Drammen",
      "country": "Norway",
      "coordinates": [59.73260441542428, 10.221099080668264],
      "img": "https://www.countryflagicons.com/SHINY/64/NO.png",
      "key": 184
    },
    {
      "name": "Oslo",
      "city": "Oslo",
      "country": "Norway",
      "coordinates": [59.904077172034604, 10.738320989456057],
      "img": "https://www.countryflagicons.com/SHINY/64/NO.png",
      "key": 185
    },
    {
      "name": "Brevik",
      "city": "Brevik",
      "country": "Norway",
      "coordinates": [59.06621649143152, 9.699026795866965],
      "img": "https://www.countryflagicons.com/SHINY/64/NO.png",
      "key": 186
    },
    {
      "name": "Moss",
      "city": "Moss",
      "country": "Norway",
      "coordinates": [59.430260888532054, 10.654780169007678],
      "img": "https://www.countryflagicons.com/SHINY/64/NO.png",
      "key": 187
    },
    {
      "name": "Bergen",
      "city": "Bergen",
      "country": "Norway",
      "coordinates": [60.39678627425091, 5.319045853715782],
      "img": "https://www.countryflagicons.com/SHINY/64/NO.png",
      "key": 188
    },
    {
      "name": "Larvik",
      "city": "Larvik",
      "country": "Norway",
      "coordinates": [59.04840453215447, 10.03896469932366],
      "img": "https://www.countryflagicons.com/SHINY/64/NO.png",
      "key": 189
    },
    {
      "name": "Mongstad",
      "city": "Mongstad",
      "country": "Norway",
      "coordinates": [60.82492630514447, 5.022031727907599],
      "img": "https://www.countryflagicons.com/SHINY/64/NO.png",
      "key": 190
    },
    {
      "name": "Austevoll",
      "city": "Austevoll",
      "country": "Norway",
      "coordinates": [60.38939056219768, 5.155239717251266],
      "img": "https://www.countryflagicons.com/SHINY/64/NO.png",
      "key": 191
    },
    {
      "name": "Fredrikstad",
      "city": "Fredrikstad",
      "country": "Norway",
      "coordinates": [59.23016656885734, 10.916155341923766],
      "img": "https://www.countryflagicons.com/SHINY/64/NO.png",
      "key": 192
    },
    {
      "name": "Haugesund",
      "city": "Haugesund",
      "country": "Norway",
      "coordinates": [59.411302818956806, 5.257543825859883],
      "img": "https://www.countryflagicons.com/SHINY/64/NO.png",
      "key": 193
    },
    {
      "name": "Willemstad",
      "city": "Willemstad",
      "country": "NetherlandsAntilles",
      "coordinates": [12.10608315663011, -68.94143889359904],
      "img": "https://www.countryflagicons.com/SHINY/64/NL.png",
      "key": 194
    },
    {
      "name": "Kralendijk",
      "city": "Kralendijk",
      "country": "NetherlandsAntilles",
      "coordinates": [12.152108858366045, -68.27513001449209],
      "img": "https://www.countryflagicons.com/SHINY/64/NL.png",
      "key": 195
    },
    {
      "name": "Doha",
      "city": "Doha",
      "country": "Qatar",
      "coordinates": [25.298250549926664, 51.55023876318659],
      "img": "https://www.countryflagicons.com/SHINY/64/QA.png",
      "key": 196
    },
    {
      "name": "Hamad",
      "city": "Mesaieed",
      "country": "Qatar",
      "coordinates": [25.03159682628268, 51.583417604635436],
      "img": "https://www.countryflagicons.com/SHINY/64/QA.png",
      "key": 197
    },
    {
      "name": "Victoria",
      "city": "Victoria",
      "country": "Reunion",
      "coordinates": [24.486890379178714, 113.82788508076348],
      "img": "https://www.countryflagicons.com/SHINY/64/RE.png",
      "key": 198
    },
    {
      "name": "Constant",
      "city": "Constanta",
      "country": "Romania",
      "coordinates": [44.13219267671412, 28.645280154806443],
      "img": "https://www.countryflagicons.com/SHINY/64/RO.png",
      "key": 199
    },
    {
      "name": "Magadan",
      "city": "Magadan",
      "country": "Russia",
      "coordinates": [59.57753856465043, 150.72618125137024],
      "img": "https://www.countryflagicons.com/SHINY/64/RU.png",
      "key": 200
    },
    {
      "name": "Vladivostok",
      "city": "Vladivostok",
      "country": "Russia",
      "coordinates": [44.13219267671412, 28.645280154806443],
      "img": "https://www.countryflagicons.com/SHINY/64/RU.png",
      "key": 201
    },
    {
      "name": "Nakhodka",
      "city": "Nakhodka",
      "country": "Russia",
      "coordinates": [42.82178455506428, 132.88154123866073],
      "img": "https://www.countryflagicons.com/SHINY/64/RU.png",
      "key": 202
    },
    {
      "name": "Vostochny",
      "city": "Vostochny",
      "country": "Russia",
      "coordinates": [42.7338533512524, 133.06629514183246],
      "img": "https://www.countryflagicons.com/SHINY/64/RU.png",
      "key": 203
    },
    {
      "name": "Kholmsk",
      "city": "Kholmsk",
      "country": "Russia",
      "coordinates": [47.18243373814806, 142.0698466183158],
      "img": "https://www.countryflagicons.com/SHINY/64/RU.png",
      "key": 204
    },
    {
      "name": "Korsakov",
      "city": "Korsakov",
      "country": "Russia",
      "coordinates": [46.61965095781259, 142.76917642792236],
      "img": "https://www.countryflagicons.com/SHINY/64/RU.png",
      "key": 205
    },
    {
      "name": "Petropavlovsk-Kamchatsky",
      "city": "Petropavlovsk-Kamchatskiy",
      "country": "Russia",
      "coordinates": [53.00674152909453, 158.65723255658713],
      "img": "https://www.countryflagicons.com/SHINY/64/RU.png",
      "key": 206
    },
    {
      "name": "SaintPetersburg",
      "city": "SaintPetersburg",
      "country": "Russia",
      "coordinates": [62.602070299979374, 31.549460853152993],
      "img": "https://www.countryflagicons.com/SHINY/64/RU.png",
      "key": 207
    },
    {
      "name": "Ust-Luga",
      "city": "Ust-Luga",
      "country": "Russia",
      "coordinates": [59.68219696062846, 28.437627097856062],
      "img": "https://www.countryflagicons.com/SHINY/64/RU.png",
      "key": 208
    },
    {
      "name": "Novorossiysk",
      "city": "Novorossiysk",
      "country": "Russia",
      "coordinates": [44.72576463928072, 37.79378271754952],
      "img": "https://www.countryflagicons.com/SHINY/64/RU.png",
      "key": 209
    },
    {
      "name": "Faisalabad",
      "city": "Faisalabad",
      "country": "Pakistan",
      "coordinates": [31.493999631226863, 73.14165584149984],
      "img": "https://www.countryflagicons.com/SHINY/64/PK.png",
      "key": 210
    },
    {
      "name": "Lahore",
      "city": "Lahore",
      "country": "Pakistan",
      "coordinates": [31.608016193280154, 74.39663392746151],
      "img": "https://www.countryflagicons.com/SHINY/64/PK.png",
      "key": 211
    },
    {
      "name": "Islamabad",
      "city": "Islamabad",
      "country": "Pakistan",
      "coordinates": [33.70229416334227, 73.05002803644484],
      "img": "https://www.countryflagicons.com/SHINY/64/PK.png",
      "key": 212
    },
    {
      "name": "Sialkot",
      "city": "Sialkot",
      "country": "Pakistan",
      "coordinates": [32.48051209276063, 74.37849474229421],
      "img": "https://www.countryflagicons.com/SHINY/64/PK.png",
      "key": 213
    },
    {
      "name": "PortQasim",
      "city": "Karachi",
      "country": "Pakistan",
      "coordinates": [24.783265028370465, 67.32866114438981],
      "img": "https://www.countryflagicons.com/SHINY/64/PK.png",
      "key": 214
    },
    {
      "name": "Karachi",
      "city": "Karachi",
      "country": "Pakistan",
      "coordinates": [24.836082477301424, 66.9829200078861],
      "img": "https://www.countryflagicons.com/SHINY/64/PK.png",
      "key": 215
    },
    {
      "name": "Gwadar",
      "city": "Gawadar",
      "country": "Pakistan",
      "coordinates": [24.842519438518234, 67.03521341186543],
      "img": "https://www.countryflagicons.com/SHINY/64/PK.png",
      "key": 216
    },
    {
      "name": "Asuncion",
      "city": "Asuncion",
      "country": "Paraguay",
      "coordinates": [-25.27368841449973, -57.64730482738334],
      "img": "https://www.countryflagicons.com/SHINY/64/PY.png",
      "key": 217
    },
    {
      "name": "Warszawa",
      "city": "Warsaw",
      "country": "Poland",
      "coordinates": [52.234551934443495, 21.062232588478818],
      "img": "https://www.countryflagicons.com/SHINY/64/PL.png",
      "key": 218
    },
    {
      "name": "Gdansk",
      "city": "Gdansk",
      "country": "Poland",
      "coordinates": [54.40068988010246, 18.677984413794974],
      "img": "https://www.countryflagicons.com/SHINY/64/PL.png",
      "key": 219
    },
    {
      "name": "Gdynia",
      "city": "Gdynia",
      "country": "Poland",
      "coordinates": [54.38251465532021, 18.674574641768505],
      "img": "https://www.countryflagicons.com/SHINY/64/PL.png",
      "key": 220
    },
    {
      "name": "Szczecin",
      "city": "Szczecin",
      "country": "Poland",
      "coordinates": [53.438701270901895, 14.58426456090818],
      "img": "https://www.countryflagicons.com/SHINY/64/PL.png",
      "key": 221
    },
    {
      "name": "Panama",
      "city": "Panama",
      "country": "Panama",
      "coordinates": [10.289264365676308, -79.25356984196304],
      "img": "https://www.countryflagicons.com/SHINY/64/PA.png",
      "key": 222
    },
    {
      "name": "Balboa",
      "city": "Balboa",
      "country": "Panama",
      "coordinates": [8.958866734213247, -79.56155678554273],
      "img": "https://www.countryflagicons.com/SHINY/64/PA.png",
      "key": 223
    },
    {
      "name": "Rodman",
      "city": "PanamaCanal",
      "country": "Panama",
      "coordinates": [8.958865548128403, -79.57559958841655],
      "img": "https://www.countryflagicons.com/SHINY/64/PA.png",
      "key": 224
    },
    {
      "name": "Callao",
      "city": "Callao",
      "country": "Peru",
      "coordinates": [-12.051323901710042, -77.1460816812362],
      "img": "https://www.countryflagicons.com/SHINY/64/PA.png",
      "key": 225
    },
    {
      "name": "Paita",
      "city": "Paita",
      "country": "Peru",
      "coordinates": [-11.764981077291441, -77.06911967865668],
      "img": "https://www.countryflagicons.com/SHINY/64/PE.png",
      "key": 226
    },
    {
      "name": "Atico",
      "city": "Atico",
      "country": "Peru",
      "coordinates": [39.66367275387323, -0.211317887694817],
      "img": "https://www.countryflagicons.com/SHINY/64/PE.png",
      "key": 227
    },
    {
      "name": "Matarani",
      "city": "Matarani",
      "country": "Peru",
      "coordinates": [-16.998919367818463, -72.10796961162401],
      "img": "https://www.countryflagicons.com/SHINY/64/PE.png",
      "key": 228
    },
    {
      "name": "Ilo",
      "city": "Ilo",
      "country": "Peru",
      "coordinates": [-17.63351114113747, -71.35245735230485],
      "img": "https://www.countryflagicons.com/SHINY/64/PE.png",
      "key": 229
    },
    {
      "name": "Lisboa",
      "city": "Lisboa",
      "country": "Portugal",
      "coordinates": [38.70175437002094, -9.168213532530372],
      "img": "https://www.countryflagicons.com/SHINY/64/PT.png",
      "key": 230
    },
    {
      "name": "Setubal",
      "city": "Setubal",
      "country": "Portugal",
      "coordinates": [38.5212576635964, -8.899899870309048],
      "img": "https://www.countryflagicons.com/SHINY/64/PT.png",
      "key": 231
    },
    {
      "name": "Aveiro",
      "city": "Aveiro",
      "country": "Portugal",
      "coordinates": [40.633857549737634, -8.729557320235394],
      "img": "https://www.countryflagicons.com/SHINY/64/PT.png",
      "key": 232
    },
    {
      "name": "Sines",
      "city": "Sines",
      "country": "Portugal",
      "coordinates": [37.95926559420036, -8.877541676152434],
      "img": "https://www.countryflagicons.com/SHINY/64/PT.png",
      "key": 233
    },
    {
      "name": "Porto",
      "city": "Martins",
      "country": "Portugal",
      "coordinates": [41.14934007031302, -8.675169404038051],
      "img": "https://www.countryflagicons.com/SHINY/64/PT.png",
      "key": 234
    },
    {
      "name": "Leixoes",
      "city": "Leixoes",
      "country": "Portugal",
      "coordinates": [41.183778041481546, -8.703227307429009],
      "img": "https://www.countryflagicons.com/SHINY/64/PT.png",
      "key": 235
    },
    {
      "name": "VianadoCastelo",
      "city": "VianadoCastelo",
      "country": "Portugal",
      "coordinates": [41.727412149227774, -8.839080037373785],
      "img": "https://www.countryflagicons.com/SHINY/64/PT.png",
      "key": 236
    },
    {
      "name": "Lae",
      "city": "Lae",
      "country": "PapuaNewGuinea",
      "coordinates": [-6.740380744170588, 146.9838369890433],
      "img": "https://www.countryflagicons.com/SHINY/64/PT.png",
      "key": 237
    },
    {
      "name": "PortMoresby",
      "city": "PortMoresby",
      "country": "PapuaNewGuinea",
      "coordinates": [-9.471386073684501, 147.16450929767976],
      "img": "https://www.countryflagicons.com/SHINY/64/PE.png",
      "key": 238
    },
    {
      "name": "Rabaul",
      "city": "Rabaul",
      "country": "PapuaNewGuinea",
      "coordinates": [-4.201258295670004, 152.16659402700523],
      "img": "https://www.countryflagicons.com/SHINY/64/PE.png",
      "key": 239
    },
    {
      "name": "Batangas",
      "city": "Batangas",
      "country": "Philippines",
      "coordinates": [13.75518704889427, 121.04358007160374],
      "img": "https://www.countryflagicons.com/SHINY/64/PH.png",
      "key": 240
    },
    {
      "name": "Manila",
      "city": "Manila",
      "country": "Philippines",
      "coordinates": [14.592466068796735, 120.95577799793524],
      "img": "https://www.countryflagicons.com/SHINY/64/PH.png",
      "key": 241
    },
    {
      "name": "CebuCity",
      "city": "Cebu",
      "country": "Philippines",
      "coordinates": [10.297919696849936, 123.91035064149979],
      "img": "https://www.countryflagicons.com/SHINY/64/PH.png",
      "key": 242
    },
    {
      "name": "CagayanDeOro",
      "city": "CagayanDeOro",
      "country": "Philippines",
      "coordinates": [8.499282040583843, 124.66352815739582],
      "img": "https://www.countryflagicons.com/SHINY/64/PH.png",
      "key": 243
    },
    {
      "name": "Davao",
      "city": "Davao",
      "country": "Philippines",
      "coordinates": [7.1319208969807555, 125.66305916560766],
      "img": "https://www.countryflagicons.com/SHINY/64/PH.png",
      "key": 244
    },
    {
      "name": "GeneralSantos",
      "city": "GeneralSantos",
      "country": "Philippines",
      "coordinates": [6.0948582734088905, 125.15561386858936],
      "img": "https://www.countryflagicons.com/SHINY/64/PH.png",
      "key": 245
    },
    {
      "name": "SanJuan",
      "city": "SanJuan",
      "country": "PuertoRico",
      "coordinates": [22.939614812718638, -64.85222372658662],
      "img": "https://www.countryflagicons.com/SHINY/64/PE.png",
      "key": 246
    },
    {
      "name": "portofAkureyri",
      "city": "Akureyri",
      "country": "Iceland",
      "coordinates": [65.69137361200981, -18.086841031180526],
      "img": "https://www.countryflagicons.com/SHINY/64/IS.png",
      "key": 247
    },
    {
      "name": "PortOfGrundartangi",
      "city": "Grundartangi",
      "country": "Iceland",
      "coordinates": [64.35969127198805, -21.778507251393226],
      "img": "https://www.countryflagicons.com/SHINY/64/IS.png",
      "key": 248
    },
    {
      "name": "PortOfVestmannaeyjar",
      "city": "Vestmannaeyjar",
      "country": "Iceland",
      "coordinates": [63.444275114338836, -20.2680705614646],
      "img": "https://www.countryflagicons.com/SHINY/64/IS.png",
      "key": 249
    },
    {
      "name": "PortOfReykjavik",
      "city": "Reykjavik",
      "country": "Iceland",
      "coordinates": [64.15534261222885, -21.86176548354092],
      "img": "https://www.countryflagicons.com/SHINY/64/IS.png",
      "key": 250
    },
    {
      "name": "PortofHelguvik",
      "city": "Reykjavik",
      "country": "Iceland",
      "coordinates": [62.11204627441607, -6.724920334226524],
      "img": "https://www.countryflagicons.com/SHINY/64/IS.png",
      "key": 251
    },
    {
      "name": "PortOfBushehr",
      "city": "Bushehr",
      "country": "Iran",
      "coordinates": [28.971277230683228, 50.85751780241246],
      "img": "https://www.countryflagicons.com/SHINY/64/IR.png",
      "key": 252
    },
    {
      "name": "MahshahrPort",
      "city": "Bandar-e-Mahshahr",
      "country": "Iran",
      "coordinates": [30.573208314043534, 49.17354937627094],
      "img": "https://www.countryflagicons.com/SHINY/64/IR.png",
      "key": 253
    },
    {
      "name": "KhorramshahrPort",
      "city": "Khorramshahr",
      "country": "Iran",
      "coordinates": [30.437438553415813, 48.15005768617942],
      "img": "https://www.countryflagicons.com/SHINY/64/IR.png",
      "key": 254
    },
    {
      "name": "PortOfAbbas",
      "city": "BandarAbbas",
      "country": "Iran",
      "coordinates": [27.108472917907147, 56.06082768955652],
      "img": "https://www.countryflagicons.com/SHINY/64/IR.png",
      "key": 255
    },
    {
      "name": "KishPort",
      "city": "Kish",
      "country": "Iran",
      "coordinates": [26.567425784237507, 54.00502265053775],
      "img": "https://www.countryflagicons.com/SHINY/64/IR.png",
      "key": 256
    },
    {
      "name": "AnzaliPort",
      "city": "Bandar-e-Anzali",
      "country": "Iran",
      "coordinates": [37.48146743301083, 49.462316579694885],
      "img": "https://www.countryflagicons.com/SHINY/64/IR.png",
      "key": 257
    },
    {
      "name": "PortofAshdod",
      "city": "Ashdod",
      "country": "Israel",
      "coordinates": [31.82257441923261, 34.64938819340042],
      "img": "https://www.countryflagicons.com/SHINY/64/IR.png",
      "key": 258
    },
    {
      "name": "HaifaPort",
      "city": "Haifa",
      "country": "Israel",
      "coordinates": [32.821451431760075, 35.00073528324072],
      "img": "https://www.countryflagicons.com/SHINY/64/PE.png",
      "key": 259
    },
    {
      "name": "BhusawalPort",
      "city": "Bhusawal",
      "country": "India",
      "coordinates": [21.047568428476133, 75.7878969295325],
      "img": "https://www.countryflagicons.com/SHINY/64/IN.png",
      "key": 260
    },
    {
      "name": "HyderabadPort",
      "city": "Hyderabad",
      "country": "India",
      "coordinates": [17.4200180189203, 78.44120658474087],
      "img": "https://www.countryflagicons.com/SHINY/64/IN.png",
      "key": 261
    },
    {
      "name": "VisakhapatnamPort",
      "city": "Visakhapatnam",
      "country": "India",
      "coordinates": [17.70175580834974, 83.28979662707394],
      "img": "https://www.countryflagicons.com/SHINY/64/IN.png",
      "key": 262
    },
    {
      "name": "NhavaSheva",
      "city": "NaviMumbai",
      "country": "India",
      "coordinates": [17.724389815039558, 83.20677734149983],
      "img": "https://www.countryflagicons.com/SHINY/64/IN.png",
      "key": 263
    },
    {
      "name": "JawaharlalNehruPort",
      "city": "NaviMumbai",
      "country": "India",
      "coordinates": [18.952886399299484, 72.95037892998887],
      "img": "https://www.countryflagicons.com/SHINY/64/IN.png",
      "key": 264
    },
    {
      "name": "HaziraAdaniPort",
      "city": "Gujarat",
      "country": "India",
      "coordinates": [21.083889486201635, 72.62840505717446],
      "img": "https://www.countryflagicons.com/SHINY/64/IN.png",
      "key": 265
    },
    {
      "name": "MumbaiPort",
      "city": "Mumbai",
      "country": "India",
      "coordinates": [18.981835703932187, 72.85945838562309],
      "img": "https://www.countryflagicons.com/SHINY/64/IN.png",
      "key": 266
    },
    {
      "name": "KrishnapatnamPort",
      "city": "AndharPradesh",
      "country": "India",
      "coordinates": [19.108295883943978, 72.86898183556964],
      "img": "https://www.countryflagicons.com/SHINY/64/IN.png",
      "key": 267
    },
    {
      "name": "AhmedabadPort",
      "city": "Gujarat",
      "country": "India",
      "coordinates": [23.037410646504192, 72.5654672106276],
      "img": "https://www.countryflagicons.com/SHINY/64/IN.png",
      "key": 268
    },
    {
      "name": "PipavavPort",
      "city": "Rajula",
      "country": "India",
      "coordinates": [21.012104720149512, 71.4905684106105],
      "img": "https://www.countryflagicons.com/SHINY/64/IN.png",
      "key": 269
    },
    {
      "name": "UmmQasarPort",
      "city": "UmQasar",
      "country": "Iraq",
      "coordinates": [30.04010293339495, 47.92673156553723],
      "img": "https://www.countryflagicons.com/SHINY/64/IQ.png",
      "key": 270
    },
    {
      "name": "CivitavecchiaPort",
      "city": "Rome",
      "country": "Italy",
      "coordinates": [42.10662008287286, 11.775979661900832],
      "img": "https://www.countryflagicons.com/SHINY/64/IT.png",
      "key": 271
    },
    {
      "name": "Napoli",
      "city": "Naples",
      "country": "Italy",
      "coordinates": [42.07491195402774, 11.815239141231368],
      "img": "https://www.countryflagicons.com/SHINY/64/IT.png",
      "key": 272
    },
    {
      "name": "AnconaPort",
      "city": "Ancona",
      "country": "Italy",
      "coordinates": [43.6208932168473, 13.50871197327063],
      "img": "https://www.countryflagicons.com/SHINY/64/IT.png",
      "key": 273
    },
    {
      "name": "SalernoPort",
      "city": "Salerno",
      "country": "Italy",
      "coordinates": [40.67718551228879, 14.761663138317832],
      "img": "https://www.countryflagicons.com/SHINY/64/IT.png",
      "key": 274
    },
    {
      "name": "LivornoPort",
      "city": "Livorno",
      "country": "Italy",
      "coordinates": [43.55359674426257, 10.301837691306853],
      "img": "https://www.countryflagicons.com/SHINY/64/IT.png",
      "key": 275
    },
    {
      "name": "RavennaPort",
      "city": "Ravenna",
      "country": "Italy",
      "coordinates": [44.4723311177855, 12.24788772229694],
      "img": "https://www.countryflagicons.com/SHINY/64/IT.png",
      "key": 276
    },
    {
      "name": "LaSpezia",
      "city": "LaSpezia",
      "country": "Italy",
      "coordinates": [44.10718824786468, 9.829994652980947],
      "img": "https://www.countryflagicons.com/SHINY/64/IT.png",
      "key": 277
    },
    {
      "name": "Bari",
      "city": "Bari",
      "country": "Italy",
      "coordinates": [41.13290478014286, 16.86688361235992],
      "img": "https://www.countryflagicons.com/SHINY/64/IT.png",
      "key": 278
    },
    {
      "name": "Venice",
      "city": "Venezia",
      "country": "Italy",
      "coordinates": [45.439917207451316, 12.307253525037742],
      "img": "https://www.countryflagicons.com/SHINY/64/IT.png",
      "key": 279
    },
    {
      "name": "Genova",
      "city": "Genoa",
      "country": "Italy",
      "coordinates": [44.43872012783729, 8.908568995442055],
      "img": "https://www.countryflagicons.com/SHINY/64/IT.png",
      "key": 280
    },
    {
      "name": "BanjarmasinPort",
      "city": "Banjarmasin",
      "country": "Indonesia",
      "coordinates": [-3.3256299313390705, 114.55947757571694],
      "img": "https://www.countryflagicons.com/SHINY/64/ID.png",
      "key": 281
    },
    {
      "name": "BalikpapanPort",
      "city": "Balikpapan",
      "country": "Indonesia",
      "coordinates": [-1.2712256766869583, 116.80522008676604],
      "img": "https://www.countryflagicons.com/SHINY/64/ID.png",
      "key": 282
    },
    {
      "name": "SamarindaPort",
      "city": "Samarinda",
      "country": "Indonesia",
      "coordinates": [-1.227461786481059, 116.80882493630747],
      "img": "https://www.countryflagicons.com/SHINY/64/ID.png",
      "key": 283
    },
    {
      "name": "PontianakPort",
      "city": "Pontianak",
      "country": "Indonesia",
      "coordinates": [-0.017201491242726158, 109.33470831521305],
      "img": "https://www.countryflagicons.com/SHINY/64/ID.png",
      "key": 284
    },
    {
      "name": "SurabayaPort",
      "city": "Surabaya",
      "country": "Indonesia",
      "coordinates": [-7.220587336231704, 112.73182953581879],
      "img": "https://www.countryflagicons.com/SHINY/64/ID.png",
      "key": 285
    },
    {
      "name": "PortMakassar",
      "city": "Makassar",
      "country": "Indonesia",
      "coordinates": [-5.123451758634357, 119.40789111216228],
      "img": "https://www.countryflagicons.com/SHINY/64/ID.png",
      "key": 286
    },
    {
      "name": "SemarangJavaPort",
      "city": "Semarang",
      "country": "Indonesia",
      "coordinates": [-6.966083401454479, 110.37483653664589],
      "img": "https://www.countryflagicons.com/SHINY/64/ID.png",
      "key": 287
    },
    {
      "name": "Benoa",
      "city": "Denspasar",
      "country": "Indonesia",
      "coordinates": [-8.610782118580072, 115.1789583971178],
      "img": "https://www.countryflagicons.com/SHINY/64/ID.png",
      "key": 288
    },
    {
      "name": "Benteng",
      "city": "Benteng",
      "country": "Indonesia",
      "coordinates": [-3.5625665328311262, 102.29562075598909],
      "img": "https://www.countryflagicons.com/SHINY/64/PE.png",
      "key": 289
    },
    {
      "name": "TanjungPriok",
      "city": "Jakarta",
      "country": "Indonesia",
      "coordinates": [-6.091005395478217, 106.88119457424386],
      "img": "https://www.countryflagicons.com/SHINY/64/ID.png",
      "key": 290
    },
    {
      "name": "Dublin",
      "city": "Dublin",
      "country": "Ireland",
      "coordinates": [53.354713643499714, -6.220352968366015],
      "img": "https://www.countryflagicons.com/SHINY/64/IE.png",
      "key": 291
    },
    {
      "name": "Cork",
      "city": "Cork",
      "country": "Ireland",
      "coordinates": [51.852512842452896, -8.260000138814949],
      "img": "https://www.countryflagicons.com/SHINY/64/IE.png",
      "key": 292
    },
    {
      "name": "Baltimore",
      "city": "Cork",
      "country": "Ireland",
      "coordinates": [39.28723505821617, -76.60897455651404],
      "img": "https://www.countryflagicons.com/SHINY/64/IE.png",
      "key": 293
    },
    {
      "name": "Kingston",
      "city": "Kingston",
      "country": "Jamaica",
      "coordinates": [17.983385252849075, -76.8244513215191],
      "img": "https://www.countryflagicons.com/SHINY/64/JM.png",
      "key": 294
    },
    {
      "name": "MontegoBay",
      "city": "MontegoBay",
      "country": "Jamaica",
      "coordinates": [17.983219804705595, -76.8254812990473],
      "img": "https://www.countryflagicons.com/SHINY/64/JM.png",
      "key": 295
    },
    {
      "name": "PortAntonio",
      "city": "PortAntonio",
      "country": "Jamaica",
      "coordinates": [18.18164213763804, -76.43624093904391],
      "img": "https://www.countryflagicons.com/SHINY/64/JM.png",
      "key": 296
    },
    {
      "name": "Naoetsu",
      "city": "Naoetsu",
      "country": "Japan",
      "coordinates": [37.210435914619175, 138.25223625916644],
      "img": "https://www.countryflagicons.com/SHINY/64/JP.png",
      "key": 297
    },
    {
      "name": "Toyama",
      "city": "Toyama",
      "country": "Japan",
      "coordinates": [36.7762464876047, 137.22480658633432],
      "img": "https://www.countryflagicons.com/SHINY/64/JP.png",
      "key": 298
    },
    {
      "name": "ToyamaSinko",
      "city": "Toyama",
      "country": "Japan",
      "coordinates": [36.79323144567083, 137.0664764187638],
      "img": "https://www.countryflagicons.com/SHINY/64/JP.png",
      "key": 299
    },
    {
      "name": "ToyamaShinko",
      "city": "Toyama",
      "country": "Japan",
      "coordinates": [36.765993974577256, 137.1145415704181],
      "img": "https://www.countryflagicons.com/SHINY/64/JP.png",
      "key": 300
    },
    {
      "name": "Shimizu",
      "city": "Shizuoka",
      "country": "Japan",
      "coordinates": [35.081438560937855, 138.51348944294122],
      "img": "https://www.countryflagicons.com/SHINY/64/JP.png",
      "key": 301
    },
    {
      "name": "Yokohama",
      "city": "Yokohama",
      "country": "Japan",
      "coordinates": [35.450577305561694, 139.66516620328275],
      "img": "https://www.countryflagicons.com/SHINY/64/JP.png",
      "key": 302
    },
    {
      "name": "Tokyo",
      "city": "Tokyo",
      "country": "Japan",
      "coordinates": [35.61722210819517, 139.79585635816466],
      "img": "https://www.countryflagicons.com/SHINY/64JPE.png",
      "key": 303
    },
    {
      "name": "Kawasaki",
      "city": "Kawasaki",
      "country": "Japan",
      "coordinates": [35.490287904940494, 139.75166327627093],
      "img": "https://www.countryflagicons.com/SHINY/64/JP.png",
      "key": 304
    },
    {
      "name": "Ogishima",
      "city": "Kawasaki",
      "country": "Japan",
      "coordinates": [35.4768756748022, 139.74006825220144],
      "img": "https://www.countryflagicons.com/SHINY/64/JP.png",
      "key": 305
    },
    {
      "name": "Kanazawa",
      "city": "Kanazawa",
      "country": "Japan",
      "coordinates": [36.608510155001454, 136.6154047502953],
      "img": "https://www.countryflagicons.com/SHINY/64/JP.png",
      "key": 306
    },
    {
      "name": "Kashima",
      "city": "Kashima",
      "country": "Japan",
      "coordinates": [35.933608776341515, 140.69786691217493],
      "img": "https://www.countryflagicons.com/SHINY/64/JP.png",
      "key": 307
    },
    {
      "name": "NagoyaPort",
      "city": "Nagoya",
      "country": "Japan",
      "coordinates": [35.080533218830006, 136.88047201925158],
      "img": "https://www.countryflagicons.com/SHINY/64/JP.png",
      "key": 308
    },
    {
      "name": "OmaezakiPort",
      "city": "Omaezaki",
      "country": "Japan",
      "coordinates": [34.61715767408372, 138.22062448144803],
      "img": "https://www.countryflagicons.com/SHINY/64/JP.png",
      "key": 309
    },
    {
      "name": "AqabaPort",
      "city": "Aqaba",
      "country": "Jordan",
      "coordinates": [29.470412583757327, 34.975341541371066],
      "img": "https://www.countryflagicons.com/SHINY/64/JO.png",
      "key": 310
    },
    {
      "name": "AktauPort",
      "city": "Aktau",
      "country": "Kazakhstan",
      "coordinates": [43.605319950708555, 51.22093253913271],
      "img": "https://www.countryflagicons.com/SHINY/64/KZ.png",
      "key": 311
    },
    {
      "name": "TarawaIsland",
      "city": "Tarawa",
      "country": "Kiribati",
      "coordinates": [1.3342344396115278, 173.03332287403492],
      "img": "https://www.countryflagicons.com/SHINY/64/KI.png",
      "key": 312
    },
    {
      "name": "Nairobi",
      "city": "Nairobi",
      "country": "Kenya",
      "coordinates": [-1.3176084798564567, 36.880340367028275],
      "img": "https://www.countryflagicons.com/SHINY/64/KE.png",
      "key": 313
    },
    {
      "name": "Mombasa",
      "city": "Mombasa",
      "country": "Kenya",
      "coordinates": [-1.3230893567653452, 36.892012712907075],
      "img": "https://www.countryflagicons.com/SHINY/64/KE.png",
      "key": 314
    },
    {
      "name": "Kuwait",
      "city": "Kuwait-City",
      "country": "Kuwait",
      "coordinates": [29.373036202416557, 47.92223398870021],
      "img": "https://www.countryflagicons.com/SHINY/64/KW.png",
      "key": 315
    },
    {
      "name": "Shuwaikh",
      "city": "Kuwait-City",
      "country": "Kuwait",
      "coordinates": [29.353699560622687, 47.91849841355636],
      "img": "https://www.countryflagicons.com/SHINY/64/KW.png",
      "key": 316
    },
    {
      "name": "Shuaiba",
      "city": "Shuaiba",
      "country": "Kuwait",
      "coordinates": [29.046647053805668, 48.15419286674596],
      "img": "https://www.countryflagicons.com/SHINY/64/JP.png",
      "key": 317
    },
    {
      "name": "Riga",
      "city": "Riga",
      "country": "Latvia",
      "coordinates": [56.957996654924486, 24.097558193055654],
      "img": "https://www.countryflagicons.com/SHINY/64/LV.png",
      "key": 318
    },
    {
      "name": "Monrovia",
      "city": "Monrovia",
      "country": "Liberia",
      "coordinates": [6.344302780761101, -10.792567234054072],
      "img": "https://www.countryflagicons.com/SHINY/64/LR.png",
      "key": 319
    },
    {
      "name": "Kalaipeda",
      "city": "Kalaipeda",
      "country": "Lithuania",
      "coordinates": [55.696350106218304, 21.140851368244423],
      "img": "https://www.countryflagicons.com/SHINY/64/LT.png",
      "key": 320
    },
    {
      "name": "Indianapolis",
      "city": "Indiana",
      "country": "USA",
      "coordinates": [39.77124456406392, -86.16126880567768],
      "img": "https://www.countryflagicons.com/SHINY/64/US.png",
      "key": 321
    },
    {
      "name": "Cincinnati",
      "city": "Cincinnati",
      "country": "USA",
      "coordinates": [39.107369109283596, -84.53293808080497],
      "img": "https://www.countryflagicons.com/SHINY/64/US.png",
      "key": 322
    },
    {
      "name": "Benghazi",
      "city": "Benghazi",
      "country": "Libya",
      "coordinates": [32.113649315690296, 20.04047201777219],
      "img": "https://www.countryflagicons.com/SHINY/64/LY.png",
      "key": 323
    },
    {
      "name": "Misurata",
      "city": "Misurata",
      "country": "Libya",
      "coordinates": [32.36239256001147, 15.221294893337737],
      "img": "https://www.countryflagicons.com/SHINY/64/LY.png",
      "key": 324
    },
    {
      "name": "Khoms",
      "city": "AlKhoms",
      "country": "Libya",
      "coordinates": [32.67633042801518, 14.245233267340248],
      "img": "https://www.countryflagicons.com/SHINY/64/LY.png",
      "key": 325
    },
    {
      "name": "Tripoli,LY",
      "city": "Tripoli",
      "country": "Libya",
      "coordinates": [32.903590470784394, 13.185747418706486],
      "img": "https://www.countryflagicons.com/SHINY/64/LY.png",
      "key": 326
    },
    {
      "name": "Tobruk",
      "city": "Tobruk",
      "country": "Libya",
      "coordinates": [32.077064528701754, 23.980864383218275],
      "img": "https://www.countryflagicons.com/SHINY/64/LY.png",
      "key": 327
    },
    {
      "name": "Harare",
      "city": "Harare",
      "country": "Zimbabwe",
      "coordinates": [-17.827161607337228, 31.05406594802637],
      "img": "https://www.countryflagicons.com/SHINY/64/ZM.png",
      "key": 328
    },
    {
      "name": "Lusaka",
      "city": "Lusaka",
      "country": "Zambia",
      "coordinates": [-15.416277598600487, 28.285973218763814],
      "img": "https://www.countryflagicons.com/SHINY/64/ZM.png",
      "key": 329
    },
    {
      "name": "Port-Bergé",
      "city": "Boriziny",
      "country": "Madagascar",
      "coordinates": [-15.583214581580489, 47.623828690065906],
      "img": "https://www.countryflagicons.com/SHINY/64/MG.png",
      "key": 330
    },
    {
      "name": "Portd'Ehoala",
      "city": "Tôlanaro",
      "country": "Madagascar",
      "coordinates": [-25.066143442814525, 46.96303363397551],
      "img": "https://www.countryflagicons.com/SHINY/64/MG.png",
      "key": 331
    },
    {
      "name": "PortSaintLouis",
      "city": "PortSaintLouis",
      "country": "Madagascar",
      "coordinates": [-15.583545283966583, 47.62365702869789],
      "img": "https://www.countryflagicons.com/SHINY/64/MG.png",
      "key": 332
    },
    {
      "name": "PortDickson",
      "city": "NegeriSembilan",
      "country": "Malaysia",
      "coordinates": [2.516356862352482, 101.8242556170813],
      "img": "https://www.countryflagicons.com/SHINY/64/MY.png",
      "key": 333
    },
    {
      "name": "PortKelang",
      "city": "Selangor",
      "country": "Malaysia",
      "coordinates": [3.004004956742447, 101.36447419733089],
      "img": "https://www.countryflagicons.com/SHINY/64/MY.png",
      "key": 334
    },
    {
      "name": "MajuroPort",
      "city": "Majuro",
      "country": "Marshall Islands",
      "coordinates": [7.090685627064742, 171.3683354677243],
      "img": "https://www.countryflagicons.com/SHINY/64/MH.png",
      "key": 335
    },
    {
      "name": "ThePortofKwajalein",
      "city": "KwajaleinAtoll",
      "country": "Marshall Islands",
      "coordinates": [8.733798692473327, 167.73547719952188],
      "img": "https://www.countryflagicons.com/SHINY/64/MH.png",
      "key": 336
    },
    {
      "name": "VallettaCruisePort",
      "city": "Valletta",
      "country": "Malta",
      "coordinates": [35.89194678160029, 14.510068169844542],
      "img": "https://www.countryflagicons.com/SHINY/64/MT.png",
      "key": 337
    },
    {
      "name": "PortofMarsaxlokk",
      "city": "Marsaxlokk",
      "country": "Malta",
      "coordinates": [35.84140323638489, 14.545237551343773],
      "img": "https://www.countryflagicons.com/SHINY/64/MT.png",
      "key": 338
    },
    {
      "name": "MaléCommercialHarbour",
      "city": "Male",
      "country": "Maldives",
      "coordinates": [4.225097990944462, 73.517806638615],
      "img": "https://www.countryflagicons.com/SHINY/64/MV.png",
      "key": 339
    },
    {
      "name": "PenangPort",
      "city": "PulaoPinang",
      "country": "Malaysia",
      "coordinates": [5.409944267895299, 100.36820432191857],
      "img": "https://www.countryflagicons.com/SHINY/64/MY.png",
      "key": 340
    },
    {
      "name": "PortofTanjungPelepas",
      "city": "GelangPatah",
      "country": "Malaysia",
      "coordinates": [1.3630474994631796, 103.553159444684],
      "img": "https://www.countryflagicons.com/SHINY/64/MY.png",
      "key": 341
    },
    {
      "name": "JohorPort",
      "city": "PasirGudang,Johor,",
      "country": "Malaysia",
      "coordinates": [1.3696544083168463, 103.5522152973642],
      "img": "https://www.countryflagicons.com/SHINY/64/MY.png",
      "key": 342
    },
    {
      "name": "KuchingPort",
      "city": "Kuching,Sarawak",
      "country": "Malaysia",
      "coordinates": [1.5563279852986383, 110.39477905938195],
      "img": "https://www.countryflagicons.com/SHINY/64/MY.png",
      "key": 343
    },
    {
      "name": "ThePortofSibu",
      "city": "RajangRiver,Sarawak",
      "country": "Malaysia",
      "coordinates": [2.323535176259322, 111.8160579663651],
      "img": "https://www.countryflagicons.com/SHINY/64/MY.png",
      "key": 344
    },
    {
      "name": "PortofBintulu",
      "city": "Sarawak",
      "country": "Malaysia",
      "coordinates": [3.2740161670162333, 113.07260737467581],
      "img": "https://www.countryflagicons.com/SHINY/64/MY.png",
      "key": 345
    },
    {
      "name": "ThePortofMiri",
      "city": "Sarawak",
      "country": "Malaysia",
      "coordinates": [3.26096352027874, 113.067800230143],
      "img": "https://www.countryflagicons.com/SHINY/64/MY.png",
      "key": 346
    },
    {
      "name": "Fort-de-France",
      "city": "Fort-de-France",
      "country": "Martinique",
      "coordinates": [14.603730904226085, -61.07053393015588],
      "img": "https://www.countryflagicons.com/SHINY/64/MQ.png",
      "key": 347
    },
    {
      "name": "NOUAKCHOTTPort",
      "city": "NOUAKCHOTT",
      "country": "Mauritania",
      "coordinates": [17.992567487174096, -16.02222855757959],
      "img": "https://www.countryflagicons.com/SHINY/64/MR.png",
      "key": 348
    },
    {
      "name": "PortofNouadhibou",
      "city": "Nouadhibou",
      "country": "Mauritania",
      "coordinates": [20.91360181876014, -17.02986476864609],
      "img": "https://www.countryflagicons.com/SHINY/64/MR.png",
      "key": 349
    },
    {
      "name": "PortofPortLouis",
      "city": "PortLouis",
      "country": "Mauritius",
      "coordinates": [-20.162590121805238, 57.48679692741746],
      "img": "https://www.countryflagicons.com/SHINY/64/MU.png",
      "key": 350
    },
    {
      "name": "Monterrey",
      "city": "Monterrey",
      "country": "Mexico",
      "coordinates": [25.67822526502413, -100.34842903969373],
      "img": "https://www.countryflagicons.com/SHINY/64/MX.png",
      "key": 351
    },
    {
      "name": "Altamira",
      "city": "Altamira",
      "country": "Mexico",
      "coordinates": [25.63998262089032, -100.30384093342698],
      "img": "https://www.countryflagicons.com/SHINY/64/MX.png",
      "key": 352
    },
    {
      "name": "Manzanillo port",
      "city": "Manzanillo",
      "country": "Mexico",
      "coordinates": [19.058651719413945, -104.28172272221742],
      "img": "https://www.countryflagicons.com/SHINY/64/MX.png",
      "key": 353
    },
    {
      "name": "LazaroCardenas",
      "city": "LazaroCardenas",
      "country": "Mexico",
      "coordinates": [32.51505413317741, -117.00408827443957],
      "img": "https://www.countryflagicons.com/SHINY/64/MX.png",
      "key": 354
    },
    {
      "name": "LaPaz",
      "city": "LaPaz",
      "country": "Mexico",
      "coordinates": [32.520432556556955, -116.99908813622405],
      "img": "https://www.countryflagicons.com/SHINY/64/MX.png",
      "key": 355
    },
    {
      "name": "Veracruz",
      "city": "Veracruz",
      "country": "Mexico",
      "coordinates": [19.171303879238646, -96.12241536873033],
      "img": "https://www.countryflagicons.com/SHINY/64/MX.png",
      "key": 356
    },
    {
      "name": "Guyamas",
      "city": "Guyamas",
      "country": "Mexico",
      "coordinates": [27.913465954856665, -110.89590069423984],
      "img": "https://www.countryflagicons.com/SHINY/64/MX.png",
      "key": 357
    },
    {
      "name": "CuidadDelCarmen",
      "city": "CuidadDelCarmen",
      "country": "Mexico",
      "coordinates": [18.6543385226627, -91.80029110272415],
      "img": "https://www.countryflagicons.com/SHINY/64/MX.png",
      "key": 358
    },
    {
      "name": "PortofYukalpeten",
      "city": "Yukalpeten",
      "country": "Mexico",
      "coordinates": [21.283066559941446, -89.7014005485661],
      "img": "https://www.countryflagicons.com/SHINY/64/MX.png",
      "key": 359
    },
    {
      "name": "Progreso",
      "city": "Progreso",
      "country": "Mexico",
      "coordinates": [21.33588980679739, -89.67007566253585],
      "img": "https://www.countryflagicons.com/SHINY/64/MX.png",
      "key": 360
    },
    {
      "name": "Monaco(PortHercule)",
      "city": "LaCondamine",
      "country": "Monaco",
      "coordinates": [43.737473768877805, 7.427053895822798],
      "img": "https://www.countryflagicons.com/SHINY/64/MC.png",
      "key": 361
    },
    {
      "name": "BAR",
      "city": "BAR",
      "country": "Montenegro",
      "coordinates": [42.092730724385795, 19.08478767723444],
      "img": "https://www.countryflagicons.com/SHINY/64/ME.png",
      "key": 362
    },
    {
      "name": "Plymouth",
      "city": "plymouth",
      "country": "Montserrat",
      "coordinates": [50.365297572428624, -4.158163847573032],
      "img": "https://www.countryflagicons.com/SHINY/64/MS.png",
      "key": 363
    },
    {
      "name": "LittleBayFerryterminal",
      "city": "LittleBay",
      "country": "Montserrat",
      "coordinates": [16.80331402548451, -62.20536330177458],
      "img": "https://www.countryflagicons.com/SHINY/64/MS.png",
      "key": 364
    },
    {
      "name": "Casablanca",
      "city": "Casablanca",
      "country": "Morocco",
      "coordinates": [33.60396310612632, -7.596577276254872],
      "img": "https://www.countryflagicons.com/SHINY/64/MA.png",
      "key": 365
    },
    {
      "name": "Agadir",
      "city": "Agadir",
      "country": "Morocco",
      "coordinates": [33.66489707111763, -7.566015083411078],
      "img": "https://www.countryflagicons.com/SHINY/64/MA.png",
      "key": 366
    },
    {
      "name": "Tangier",
      "city": "Tangier",
      "country": "Morocco",
      "coordinates": [36.13450048562195, -5.4410731312391425],
      "img": "https://www.countryflagicons.com/SHINY/64/MA.png",
      "key": 367
    },
    {
      "name": "Nador",
      "city": "Nador",
      "country": "Morocco",
      "coordinates": [35.28303061857317, -3.2301680662424976],
      "img": "https://www.countryflagicons.com/SHINY/64/MA.png",
      "key": 368
    },
    {
      "name": "Beira",
      "city": "Beira",
      "country": "Mozambique",
      "coordinates": [-18.440763524772123, 33.732516282662296],
      "img": "https://www.countryflagicons.com/SHINY/64/MZ.png",
      "key": 369
    },
    {
      "name": "Quelimane",
      "city": "Quelimane",
      "country": "Mozambique",
      "coordinates": [-17.884875668711924, 36.891842459360376],
      "img": "https://www.countryflagicons.com/SHINY/64/MZ.png",
      "key": 370
    },
    {
      "name": "Nacala",
      "city": "Nacala",
      "country": "Mozambique",
      "coordinates": [-14.538182251596302, 40.669024760143984],
      "img": "https://www.countryflagicons.com/SHINY/64/MZ.png",
      "key": 371
    },
    {
      "name": "Pemba",
      "city": "Pemba",
      "country": "Mozambique",
      "coordinates": [-12.962688887289264, 40.48633494027049],
      "img": "https://www.countryflagicons.com/SHINY/64/MZ.png",
      "key": 372
    },
    {
      "name": "Maputo",
      "city": "Maputo",
      "country": "Mozambique",
      "coordinates": [-25.96008665908141, 32.54544102559577],
      "img": "https://www.countryflagicons.com/SHINY/64/MZ.png",
      "key": 373
    },
    {
      "name": "Yangon",
      "city": "Yangon",
      "country": "Myanmar",
      "coordinates": [19.461951158831152, 93.64295483225891],
      "img": "https://www.countryflagicons.com/SHINY/64/MM.png",
      "key": 374
    },
    {
      "name": "Thilawa",
      "city": "Yangon",
      "country": "Myanmar",
      "coordinates": [16.633904255466145, 96.27208189288154],
      "img": "https://www.countryflagicons.com/SHINY/64/MM.png",
      "key": 375
    },
    {
      "name": "Sohar",
      "city": "Sohar",
      "country": "Oman",
      "coordinates": [24.511154879178655, 56.60827787934025],
      "img": "https://www.countryflagicons.com/SHINY/64/OM.png",
      "key": 376
    },
    {
      "name": "Muscat",
      "city": "Muscat",
      "country": "Oman",
      "coordinates": [24.472802681807025, 56.62079285098344],
      "img": "https://www.countryflagicons.com/SHINY/64/OM.png",
      "key": 377
    },
    {
      "name": "Salalah",
      "city": "Salalah",
      "country": "Oman",
      "coordinates": [23.637313320121333, 58.48296619802419],
      "img": "https://www.countryflagicons.com/SHINY/64/OM.png",
      "key": 378
    },
    {
      "name": "PortofFunafuti",
      "city": "Funafuti",
      "country": "Tuvalu",
      "coordinates": [-8.519156845834944, 179.1966840986472],
      "img": "https://www.countryflagicons.com/SHINY/64/TV.png",
      "key": 379
    },
    {
      "name": "PortofSfax",
      "city": "Sfax",
      "country": "Tunisia",
      "coordinates": [34.7167253422241, 10.76556230416015],
      "img": "https://www.countryflagicons.com/SHINY/64/TN.png",
      "key": 380
    },
    {
      "name": "PortofSousse",
      "city": "Sousse",
      "country": "Tunisia",
      "coordinates": [35.82480736742074, 10.634412338768492],
      "img": "https://www.countryflagicons.com/SHINY/64/TN.png",
      "key": 381
    },
    {
      "name": "PortofRades",
      "city": "Rades",
      "country": "Tunisia",
      "coordinates": [36.80009078324956, 10.296507935448867],
      "img": "https://www.countryflagicons.com/SHINY/64/TN.png",
      "key": 382
    },
    {
      "name": "PortofBizerte",
      "city": "Bizerte",
      "country": "Tunisia",
      "coordinates": [37.26843125661817, 9.86927889781998],
      "img": "https://www.countryflagicons.com/SHINY/64/TN.png",
      "key": 383
    },
    {
      "name": "PortofLome",
      "city": "Lome",
      "country": "Togo",
      "coordinates": [6.140649966639887, 1.2824228607762942],
      "img": "https://www.countryflagicons.com/SHINY/64/TG.png",
      "key": 384
    },
    {
      "name": "PortofProvidenciales",
      "city": "Providenciales",
      "country": "TurksandCaicosIslands",
      "coordinates": [21.6366528, -72.4642978],
      "img": "https://www.countryflagicons.com/SHINY/64/TC.png",
      "key": 385
    },
    {
      "name": "PortofPortofSpain",
      "city": "PortofSpain",
      "country": "TrinidadandTobago",
      "coordinates": [10.6551581, -61.5193176],
      "img": "https://www.countryflagicons.com/SHINY/64/TT.png",
      "key": 386
    },
    {
      "name": "PortofPointLisas",
      "city": "PointLisas",
      "country": "TrinidadandTobago",
      "coordinates": [10.40800174981551, -61.49243610590861],
      "img": "https://www.countryflagicons.com/SHINY/64/TT.png",
      "key": 387
    },
    {
      "name": "PortofBangkok",
      "city": "Bangkok",
      "country": "Thailand",
      "coordinates": [13.704984606173163, 100.57845159704395],
      "img": "https://www.countryflagicons.com/SHINY/64/TH.png",
      "key": 388
    },
    {
      "name": "portofLaemChabang",
      "city": "LaemChabang",
      "country": "Thailand",
      "coordinates": [13.163642984457022, 100.90890090047876],
      "img": "https://www.countryflagicons.com/SHINY/64/TH.png",
      "key": 389
    },
    {
      "name": "PortofTurkmanbashi",
      "city": "Turkmenbashi",
      "country": "Turkmenistan",
      "coordinates": [40, 53.02803],
      "img": "https://www.countryflagicons.com/SHINY/64/TM.png",
      "key": 390
    },
    {
      "name": "PortofMersin",
      "city": "Mersin",
      "country": "Turkey",
      "coordinates": [36.79900970992932, 34.64626213680453],
      "img": "https://www.countryflagicons.com/SHINY/64/TR.png",
      "key": 391
    },
    {
      "name": "PortofIskenderun",
      "city": "Iskenderun",
      "country": "Turkey",
      "coordinates": [36.59460966421022, 36.16873545981624],
      "img": "https://www.countryflagicons.com/SHINY/64/TR.png",
      "key": 392
    },
    {
      "name": "PortofSamsun",
      "city": "Samsun",
      "country": "Turkey",
      "coordinates": [41.302956969311175, 36.33380193708497],
      "img": "https://www.countryflagicons.com/SHINY/64/TR.png",
      "key": 393
    },
    {
      "name": "PortofTrabzon",
      "city": "Trabzon",
      "country": "Turkey",
      "coordinates": [41.00547389771138, 39.7350425393421],
      "img": "https://www.countryflagicons.com/SHINY/64/TR.png",
      "key": 394
    },
    {
      "name": "PortofIzmit",
      "city": "Izmit",
      "country": "Turkey",
      "coordinates": [40.768505946282524, 29.934210160224154],
      "img": "https://www.countryflagicons.com/SHINY/64/TR.png",
      "key": 395
    },
    {
      "name": "Port Gemlik",
      "city": "Gemlik",
      "country": "Turkey",
      "coordinates": [40.40956812629449, 29.128977970011217],
      "img": "https://www.countryflagicons.com/SHINY/64/TR.png",
      "key": 396
    },
    {
      "name": "PortofHaydarpasa",
      "city": "Haydarpasa",
      "country": "Turkey",
      "coordinates": [41.005529901070865, 29.011383708658087],
      "img": "https://www.countryflagicons.com/SHINY/64/TR.png",
      "key": 397
    },
    {
      "name": "Kotka",
      "city": "Kotka",
      "country": "Finland",
      "coordinates": [60.43035297231977, 26.905507183831553],
      "img": "https://www.countryflagicons.com/SHINY/64/FI.png",
      "key": 398
    },
    {
      "name": "Helsink",
      "city": "Helsink",
      "country": "Finland",
      "coordinates": [60.16672899059339, 24.95704967515683],
      "img": "https://www.countryflagicons.com/SHINY/64/FI.png",
      "key": 399
    },
    {
      "name": "Pori",
      "city": "Pori",
      "country": "Finland",
      "coordinates": [61.59257670763056, 21.49347237553935],
      "img": "https://www.countryflagicons.com/SHINY/64/FI.png",
      "key": 400
    },
    {
      "name": "rauma",
      "city": "rauma",
      "country": "Finland",
      "coordinates": [61.13049733663115, 21.468171284438185],
      "img": "https://www.countryflagicons.com/SHINY/64/FI.png",
      "key": 401
    },
    {
      "name": "Turku",
      "city": "Turku",
      "country": "Finland",
      "coordinates": [60.43703194984939, 22.219932503817084],
      "img": "https://www.countryflagicons.com/SHINY/64/FI.png",
      "key": 402
    },
    {
      "name": "Oulu",
      "city": "Oulu",
      "country": "Finland",
      "coordinates": [64.99114628495104, 25.42684029813891],
      "img": "https://www.countryflagicons.com/SHINY/64/FI.png",
      "key": 403
    },
    {
      "name": "Kemi",
      "city": "Kemi",
      "country": "Finland",
      "coordinates": [65.6647467157437, 24.52268391351792],
      "img": "https://www.countryflagicons.com/SHINY/64/FI.png",
      "key": 404
    },
    {
      "name": "Tornio",
      "city": "Tornio",
      "country": "Finland",
      "coordinates": [65.78879042185592, 24.184557456943374],
      "img": "https://www.countryflagicons.com/SHINY/64/FI.png",
      "key": 405
    },
    {
      "name": "Cayenne Port",
      "city": "Cayenne",
      "country": "French Guiana",
      "coordinates": [5.2844962636853685, -52.5868773108777],
      "key": 406
    },
    {
      "name": "DegraddesCannes",
      "city": "Cayenne",
      "country": "FrenchGuiana",
      "coordinates": [4.8632586589257265, -52.27330454804583],
      "key": 407
    },
    {
      "name": "Thorshavn",
      "city": "Thorshavn",
      "country": "FaroeIslands",
      "coordinates": [62.0095602119756, -6.772601042577268],
      "img": "https://www.countryflagicons.com/SHINY/64/FO.png",
      "key": 408
    },
    {
      "name": "Klaksvig",
      "city": "Klaksvig",
      "country": "FaroeIslands",
      "coordinates": [62.11549212797655, -6.724360462472367],
      "img": "https://www.countryflagicons.com/SHINY/64/FO.png",
      "key": 409
    },
    {
      "name": "Lyon",
      "city": "Lyon",
      "country": "France",
      "coordinates": [45.722434393253714, 4.832903078679068],
      "img": "https://www.countryflagicons.com/SHINY/64/FR.png",
      "key": 410
    },
    {
      "name": "Bassens",
      "city": "Bassens",
      "country": "France",
      "coordinates": [44.91008650140538, -0.5359129993166876],
      "img": "https://www.countryflagicons.com/SHINY/64/FR.png",
      "key": 411
    },
    {
      "name": "Gennevilliers",
      "city": "Gennevilliers",
      "country": "France",
      "coordinates": [48.93743076618397, 2.26614224552948],
      "img": "https://www.countryflagicons.com/SHINY/64/FR.png",
      "key": 412
    },
    {
      "name": "La Rochelle",
      "city": "La-Rochelle",
      "country": "France",
      "coordinates": [46.1485082300981, -1.16896361757747],
      "img": "https://www.countryflagicons.com/SHINY/64/FR.png",
      "key": 413
    },
    {
      "name": "La-Pallice",
      "city": "La-Rochelle",
      "country": "France",
      "coordinates": [46.16086902303681, -1.2058317633541058],
      "img": "https://www.countryflagicons.com/SHINY/64/FR.png",
      "key": 414
    },
    {
      "name": "Bordeaux",
      "city": "Bordeaux",
      "country": "France",
      "coordinates": [44.91521949907463, -0.5324245009220864],
      "img": "https://www.countryflagicons.com/SHINY/64/FR.png",
      "key": 415
    },
    {
      "name": "Montoir-de-Bretagne",
      "city": "Montoir-de-Bretagne",
      "country": "France",
      "coordinates": [47.28153128438251, -2.1987163881231],
      "img": "https://www.countryflagicons.com/SHINY/64/FR.png",
      "key": 416
    },
    {
      "name": "Rouen",
      "city": "Rouen",
      "country": "France",
      "coordinates": [49.46890285978623, 1.071860045575106],
      "img": "https://www.countryflagicons.com/SHINY/64/FR.png",
      "key": 417
    },
    {
      "name": "FosSurMer",
      "city": "FosSurMer",
      "country": "France",
      "coordinates": [43.41990442482447, 4.890295016145771],
      "img": "https://www.countryflagicons.com/SHINY/64/FR.png",
      "key": 418
    },
    {
      "name": "Deauville",
      "city": "Deauville",
      "country": "France",
      "coordinates": [49.364923268080254, 0.07186452018122637],
      "img": "https://www.countryflagicons.com/SHINY/64/FR.png",
      "key": 419
    },
    {
      "name": "Papeete",
      "city": "Papeete",
      "country": "FrenchPolynesia",
      "coordinates": [-17.533171216076642, -149.57748717141274],
      "img": "https://www.countryflagicons.com/SHINY/64/PF.png",
      "key": 420
    },
    {
      "name": "Suva",
      "city": "Suva",
      "country": "Fiji",
      "coordinates": [-18.133550703936237, 178.42425050819162],
      "img": "https://www.countryflagicons.com/SHINY/64/FJ.png",
      "key": 421
    },
    {
      "name": "Lautoka",
      "city": "Lautoka",
      "country": "Fiji",
      "coordinates": [-17.6042166501818, 177.43847608119236],
      "img": "https://www.countryflagicons.com/SHINY/64/FJ.png",
      "key": 422
    },
    {
      "name": "Libreville",
      "city": "Libreville",
      "country": "Gabon",
      "coordinates": [0.4062158792683191, 9.432131271541415],
      "img": "https://www.countryflagicons.com/SHINY/64/GA.png",
      "key": 423
    },
    {
      "name": "PortGentil",
      "city": "PortGentil",
      "country": "Gabon",
      "coordinates": [-0.7236186609394776, 8.738035264690781],
      "img": "https://www.countryflagicons.com/SHINY/64/GA.png",
      "key": 424
    },
    {
      "name": "LucinaTerminal",
      "city": "Mayoumba",
      "country": "Gabon",
      "coordinates": [-0.7030649190023809, 8.768943913487679],
      "img": "https://www.countryflagicons.com/SHINY/64/GA.png",
      "key": 425
    },
    {
      "name": "Gibraltar",
      "city": "Gibraltar",
      "country": "Gibraltar",
      "coordinates": [36.13399090492968, -5.349742556902342],
      "img": "https://www.countryflagicons.com/SHINY/64/GI.png",
      "key": 426
    },
    {
      "name": "Guam Port",
      "city": "Guam",
      "country": "Guam",
      "coordinates": [13.462767834975413, 144.6673660305698],
      "img": "https://www.countryflagicons.com/SHINY/64/TR.png",
      "key": 427
    },
    {
      "name": "Banjul",
      "city": "Banjul",
      "country": "Gambia",
      "coordinates": [13.444926299496032, -16.571429820391117],
      "img": "https://www.countryflagicons.com/SHINY/64/TR.png",
      "key": 428
    },
    {
      "name": "Thessaloniki",
      "city": "Thessaloniki",
      "country": "Greece",
      "coordinates": [40.63530933451198, 22.92295832292349],
      "img": "https://www.countryflagicons.com/SHINY/64/TR.png",
      "key": 429
    },
    {
      "name": "Piraeus",
      "city": "Piraeus",
      "country": "Greece",
      "coordinates": [37.94112996641652, 23.633762405459066],
      "img": "https://www.countryflagicons.com/SHINY/64/TR.png",
      "key": 430
    },
    {
      "name": "PuertoQuetzal",
      "city": "PuertoQuetzal",
      "country": "Guatemala",
      "coordinates": [13.926541375657004, -90.7490571562641],
      "img": "https://www.countryflagicons.com/SHINY/64/GT.png",
      "key": 431
    },
    {
      "name": "Guatemala Port",
      "city": "Guatemala",
      "country": "Guatemala",
      "coordinates": [13.928529234032016, -90.75610110434644],
      "img": "https://www.countryflagicons.com/SHINY/64/GT.png",
      "key": 432
    },
    {
      "name": "Poti Port",
      "city": "Poti",
      "country": "Georgia",
      "coordinates": [42.15461858133244, 41.66509146281073],
      "img": "https://www.countryflagicons.com/SHINY/64/GE.png",
      "key": 433
    },
    {
      "name": "Batumi Port",
      "city": "Batumi",
      "country": "Georgia",
      "coordinates": [42.14720398406177, 41.68055478785847],
      "img": "https://www.countryflagicons.com/SHINY/64/GE.png",
      "key": 434
    },
    {
      "name": "Umanak Port",
      "city": "Umanak",
      "country": "Greenland",
      "coordinates": [70.70471056847799, -52.132959906866674],
      "img": "https://www.countryflagicons.com/SHINY/64/GL.png",
      "key": 435
    },
    {
      "name": "Jakobshavn Port",
      "city": "Jakobshavn",
      "country": "Greenland",
      "coordinates": [69.22440764504465, -51.09131838777356],
      "img": "https://www.countryflagicons.com/SHINY/64/GL.png",
      "key": 436
    },
    {
      "name": "Christianshaab Port",
      "city": "Christianshaab",
      "country": "Greenland",
      "coordinates": [69.21532334514555, -51.11174610446601],
      "img": "https://www.countryflagicons.com/SHINY/64/GL.png",
      "key": 437
    },
    {
      "name": "Upernivik",
      "city": "Upernivik",
      "country": "Greenland",
      "coordinates": [72.78347246344325, -56.14991429035213],
      "img": "https://www.countryflagicons.com/SHINY/64/GL.png",
      "key": 438
    },
    {
      "name": "Egedesminde",
      "city": "Egedesminde",
      "country": "Greenland",
      "coordinates": [68.70940300180946, -52.87097902974891],
      "img": "https://www.countryflagicons.com/SHINY/64/GL.png",
      "key": 439
    },
    {
      "name": "SisimiutPort",
      "city": "Sisimiut",
      "country": "Greenland",
      "coordinates": [66.94308453601818, -53.67432238983971],
      "img": "https://www.countryflagicons.com/SHINY/64/GL.png",
      "key": 440
    },
    {
      "name": "Sukkertoppen",
      "city": "Sukkertoppen",
      "country": "Greenland",
      "coordinates": [65.41164163501993, -52.89884135766045],
      "img": "https://www.countryflagicons.com/SHINY/64/GL.png",
      "key": 441
    },
    {
      "name": "Frederikshaab",
      "city": "Frederikshaab",
      "country": "Greenland",
      "coordinates": [17.714166307121538, -64.88836526128087],
      "img": "https://www.countryflagicons.com/SHINY/64/GL.png",
      "key": 442
    },
    {
      "name": "Narssarssuaq",
      "city": "Narssarssuaq",
      "country": "Greenland",
      "coordinates": [61.16148925088991, -45.41793172720521],
      "img": "https://www.countryflagicons.com/SHINY/64/GL.png",
      "key": 443
    },
    {
      "name": "Julianehaab",
      "city": "Julianehaab",
      "country": "Greenland",
      "coordinates": [61.19231039858084, -45.41075683192455],
      "img": "https://www.countryflagicons.com/SHINY/64/GL.png",
      "key": 444
    },
    {
      "name": "Conakry",
      "city": "Conakry",
      "country": "Guinea",
      "coordinates": [9.514924548872887, -13.718808557575077],
      "img": "https://www.countryflagicons.com/SHINY/64/GN.png",
      "key": 445
    },
    {
      "name": "Mannheim",
      "city": "Mannheim",
      "country": "Germany",
      "coordinates": [49.50825549278835, 8.453356251522028],
      "img": "https://www.countryflagicons.com/SHINY/64/DE.png",
      "key": 446
    },
    {
      "name": "Frankfurt",
      "city": "Frankfurt",
      "country": "Germany",
      "coordinates": [50.19328580611384, 8.562443079639706],
      "img": "https://www.countryflagicons.com/SHINY/64/DE.png",
      "key": 447
    },
    {
      "name": "Bremen",
      "city": "Bremen",
      "country": "Germany",
      "coordinates": [53.12064825740974, 8.781526581855152],
      "img": "https://www.countryflagicons.com/SHINY/64/DE.png",
      "key": 448
    },
    {
      "name": "Duisburg",
      "city": "Duisburg",
      "country": "Germany",
      "coordinates": [51.44139754392951, 6.764943455419658],
      "img": "https://www.countryflagicons.com/SHINY/64/DE.png",
      "key": 449
    },
    {
      "name": "Germersheim",
      "city": "Germersheim",
      "country": "Germany",
      "coordinates": [49.236274684403064, 8.38399344606209],
      "img": "https://www.countryflagicons.com/SHINY/64/DE.png",
      "key": 450
    },
    {
      "name": "Hamburg",
      "city": "Hamburg",
      "country": "Germany",
      "coordinates": [53.51430129285358, 9.967190912888375],
      "img": "https://www.countryflagicons.com/SHINY/64/DE.png",
      "key": 451
    },
    {
      "name": "Bremerhaven",
      "city": "Bremerhaven",
      "country": "Germany",
      "coordinates": [53.56317171869915, 8.558573914092786],
      "img": "https://www.countryflagicons.com/SHINY/64/DE.png",
      "key": 452
    },
    {
      "name": "Lubeck",
      "city": "Lubeck",
      "country": "Germany",
      "coordinates": [53.94353886514555, 10.854695392644867],
      "img": "https://www.countryflagicons.com/SHINY/64/DE.png",
      "key": 453
    },
    {
      "name": "Wilhelmshaven",
      "city": "Wilhelmshaven",
      "country": "Germany",
      "coordinates": [53.59007597277942, 8.141726861154773],
      "img": "https://www.countryflagicons.com/SHINY/64/DE.png",
      "key": 454
    },
    {
      "name": "Brunsbuttel",
      "city": "Brunsbuttel",
      "country": "Germany",
      "coordinates": [53.8888792724899, 9.175401982225301],
      "img": "https://www.countryflagicons.com/SHINY/64/DE.png",
      "key": 455
    },
    {
      "name": "StGeorge's",
      "city": "StGeorge's",
      "country": "Grenada",
      "coordinates": [12.051090604528154, -61.75528229998047],
      "img": "https://www.countryflagicons.com/SHINY/64/GD.png",
      "key": 456
    },
    {
      "name": "Bissau",
      "city": "Bissau",
      "country": "Guinea-Bissau",
      "coordinates": [11.8599371699977, -15.576694489678589],
      "img": "https://www.countryflagicons.com/SHINY/64/GW.png",
      "key": 457
    },
    {
      "name": "Tema",
      "city": "Tema",
      "country": "Ghana",
      "coordinates": [5.625405988127813, 0.005696050222691803],
      "img": "https://www.countryflagicons.com/SHINY/64/GH.png",
      "key": 458
    },
    {
      "name": "Accra",
      "city": "Accra",
      "country": "Ghana",
      "coordinates": [5.080153580149417, -1.79310223480477],
      "img": "https://www.countryflagicons.com/SHINY/64/GH.png",
      "key": 459
    },
    {
      "name": "Takoradi",
      "city": "Takoradi",
      "country": "Ghana",
      "coordinates": [4.886952470778056, -1.7403269032212576],
      "img": "https://www.countryflagicons.com/SHINY/64/GH.png",
      "key": 460
    },
    {
      "name": "Pointe-a-Pitre",
      "city": "Pointe-a-Pitre",
      "country": "Guadeloupe",
      "coordinates": [16.23568501294474, -61.53702838754013],
      "key": 461
    },
    {
      "name": "Georgetown,GY",
      "city": "Georgetown",
      "country": "Guyana",
      "coordinates": [6.767231608863485, -58.18072292848955],
      "img": "https://www.countryflagicons.com/SHINY/64/GY.png",
      "key": 462
    },
    {
      "name": "Lafiteau",
      "city": "Port-au-Prince",
      "country": "Haiti",
      "coordinates": [18.69517689549903, -72.35313029331547],
      "img": "https://www.countryflagicons.com/SHINY/64/HT.png",
      "key": 463
    },
    {
      "name": "Port-au-Prince",
      "city": "Port-au-Prince",
      "country": "Haiti",
      "coordinates": [18.58385446458521, -72.32911576584576],
      "img": "https://www.countryflagicons.com/SHINY/64/HT.png",
      "key": 464
    },
    {
      "name": "Cap-Haitien",
      "city": "Cap-Haitien",
      "country": "Haiti",
      "coordinates": [19.759524064330375, -72.195087180841],
      "img": "https://www.countryflagicons.com/SHINY/64/HT.png",
      "key": 465
    },
    {
      "name": "HongKong",
      "city": "HongKong",
      "country": "HongKong",
      "coordinates": [22.303787822985267, 114.16788093799664],
      "img": "https://www.countryflagicons.com/SHINY/64/HK.png",
      "key": 466
    },
    {
      "name": "VictoriaHarbour",
      "city": "HongKong",
      "country": "HongKong",
      "coordinates": [22.290137530078542, 114.1719449831142],
      "img": "https://www.countryflagicons.com/SHINY/64/HK.png",
      "key": 467
    },
    {
      "name": "PuertoCortes",
      "city": "PuertoCortes",
      "country": "Honduras",
      "coordinates": [15.84652641437799, -87.94890430334495],
      "img": "https://www.countryflagicons.com/SHINY/64/HN.png",
      "key": 468
    },
    {
      "name": "SanLorenzo",
      "city": "SanLorenzo",
      "country": "Honduras",
      "coordinates": [13.403798466477413, -87.42881158810336],
      "img": "https://www.countryflagicons.com/SHINY/64/HN.png",
      "key": 469
    },
    {
      "name": "PortofBasseterre",
      "city": "Basseterre",
      "country": "SaintKittsandNevis",
      "coordinates": [17.29247252233603, -62.72243357825705],
      "img": "https://www.countryflagicons.com/SHINY/64/KN.png",
      "key": 470
    },
    {
      "name": "PortofCharlestown",
      "city": "Charlestown",
      "country": "SaintKittsandNevis",
      "coordinates": [32.784904593498325, -79.92750004744448],
      "img": "https://www.countryflagicons.com/SHINY/64/KN.png",
      "key": 471
    },
    {
      "name": "PortCastries",
      "city": "Castries",
      "country": "SaintLucia",
      "coordinates": [14.014540518593671, -60.99510379839976],
      "img": "https://www.countryflagicons.com/SHINY/64/LC.png",
      "key": 472
    },
    {
      "name": "PortofVieux-Fort",
      "city": "Vieux-Fort",
      "country": "SaintLucia",
      "coordinates": [13.723284689709333, -60.951104042293174],
      "img": "https://www.countryflagicons.com/SHINY/64/LC.png",
      "key": 473
    },
    {
      "name": "PortofArnosVale",
      "city": "ArnosVale",
      "country": "SaintVincentandTheGrenadines",
      "coordinates": [13.149941540298398, -61.20391569190346],
      "img": "https://www.countryflagicons.com/SHINY/64/VC.png",
      "key": 474
    },
    {
      "name": "PortofKingstown",
      "city": "Kingstown",
      "country": "SaintVincentandTheGrenadines",
      "coordinates": [13.148792529853377, -61.22334555948954],
      "img": "https://www.countryflagicons.com/SHINY/64/VC.png",
      "key": 475
    },
    {
      "name": "PortofApia",
      "city": "Samoa",
      "country": "Samoa",
      "coordinates": [-13.826274819618476, -171.7613774918997],
      "img": "https://www.countryflagicons.com/SHINY/64/WS.png",
      "key": 476
    },
    {
      "name": "DammamPort",
      "city": "Dammam",
      "country": "SaudiArabia",
      "coordinates": [21.4305523714189, 39.193375731926984],
      "img": "https://www.countryflagicons.com/SHINY/64/SA.png",
      "key": 477
    },
    {
      "name": "JeddahIslamicPort",
      "city": "jeddah",
      "country": "SaudiArabia",
      "coordinates": [21.485292606079764, 39.173208824882614],
      "img": "https://www.countryflagicons.com/SHINY/64/SA.png",
      "key": 478
    },
    {
      "name": "KingFahdIndustrialPortinJubail",
      "city": "jubail",
      "country": "SaudiArabia",
      "coordinates": [27.018115909373204, 49.67372638913495],
      "img": "https://www.countryflagicons.com/SHINY/64/SA.png",
      "key": 479
    },
    {
      "name": "PortofDakar",
      "city": "Dakar",
      "country": "Senegal",
      "coordinates": [14.67496125766171, -17.431302022725006],
      "img": "https://www.countryflagicons.com/SHINY/64/SN.png",
      "key": 480
    },
    {
      "name": "PortofBelgrade",
      "city": "Belgrade",
      "country": "Serbia",
      "coordinates": [44.82508571004615, 20.476872829365675],
      "img": "https://www.countryflagicons.com/SHINY/64/RS.png",
      "key": 481
    },
    {
      "name": "PortofVictoria",
      "city": "PortofVictoria",
      "country": "Seychelles",
      "coordinates": [28.69734490673706, -96.9616349187246],
      "img": "https://www.countryflagicons.com/SHINY/64/SC.png",
      "key": 482
    },
    {
      "name": "Port of Freetown",
      "city": "Freetown",
      "country": "SierraLeone",
      "coordinates": [8.490979005140728, -13.212741801853982],
      "img": "https://www.countryflagicons.com/SHINY/64/SL.png",
      "key": 483
    },
    {
      "name": "PortofSingapore",
      "city": "Singapore",
      "country": "Singapore",
      "coordinates": [1.4670714535871916, 103.83462212986626],
      "img": "https://www.countryflagicons.com/SHINY/64/SG.png",
      "key": 484
    },
    {
      "name": "PortofBratislava",
      "city": "Bratislava",
      "country": "Slovakia",
      "coordinates": [48.1356484745754, 17.14940393778421],
      "img": "https://www.countryflagicons.com/SHINY/64/SK.png",
      "key": 485
    },
    {
      "name": "Port of Koper",
      "city": "Koper",
      "country": "Slovenia",
      "coordinates": [45.61940488307157, 13.766741491770759],
      "img": "https://www.countryflagicons.com/SHINY/64/SI.png",
      "key": 486
    },
    {
      "name": "PortofNoro",
      "city": "Noro",
      "country": "SolomonIslands",
      "coordinates": [-8.235363218991692, 157.19727992520103],
      "img": "https://www.countryflagicons.com/SHINY/64/SB.png",
      "key": 487
    },
    {
      "name": "PortofHoniara",
      "city": "Honiara",
      "country": "SolomonIslands",
      "coordinates": [-9.426518563919695, 159.9575198286979],
      "img": "https://www.countryflagicons.com/SHINY/64/SB.png",
      "key": 488
    },
    {
      "name": "PortofMogadishu",
      "city": "Mogadishu",
      "country": "Somalia",
      "coordinates": [2.4127893324620073, 45.33913291980926],
      "img": "https://www.countryflagicons.com/SHINY/64/SO.png",
      "key": 489
    },
    {
      "name": "PortofBerbera",
      "city": "Berbera",
      "country": "Somalia",
      "coordinates": [10.439057661069663, 44.999486365625565],
      "img": "https://www.countryflagicons.com/SHINY/64/SO.png",
      "key": 490
    },
    {
      "name": "PortofCapeTown",
      "city": "CapeTown",
      "country": "SouthAfrica",
      "coordinates": [-29.881468055312975, 31.01773376786912],
      "img": "https://www.countryflagicons.com/SHINY/64/ZA.png",
      "key": 491
    },
    {
      "name": "PortofDurban",
      "city": "Durban",
      "country": "SouthAfrica",
      "coordinates": [-29.868744593680134, 31.0339557756413],
      "img": "https://www.countryflagicons.com/SHINY/64/ZA.png",
      "key": 492
    },
    {
      "name": "PortElizabeth",
      "city": "PortElizabeth",
      "country": "SouthAfrica",
      "coordinates": [-33.91999871688607, 25.604014372254543],
      "img": "https://www.countryflagicons.com/SHINY/64/ZA.png",
      "key": 493
    },
    {
      "name": "PortofValenciaBurgos",
      "city": "Burgos",
      "country": "Spain",
      "coordinates": [39.464887010931136, -0.3478006550047987],
      "img": "https://www.countryflagicons.com/SHINY/64/ES.png",
      "key": 494
    },
    {
      "name": "PortofValencia",
      "city": "Valencia",
      "country": "Spain",
      "coordinates": [39.44881184338839, -0.31220631822640116],
      "img": "https://www.countryflagicons.com/SHINY/64/ES.png",
      "key": 495
    },
    {
      "name": "PortofSagunto",
      "city": "Sagunto",
      "country": "Spain",
      "coordinates": [39.66615518092223, -0.2099866662697365],
      "img": "https://www.countryflagicons.com/SHINY/64/ES.png",
      "key": 496
    },
    {
      "name": "PortofCastellonDeLaPlana",
      "city": "CastellonDeLaPlana",
      "country": "Spain",
      "coordinates": [39.97724217813793, 0.017439527786904708],
      "img": "https://www.countryflagicons.com/SHINY/64/ES.png",
      "key": 497
    },
    {
      "name": "PortofBilbao",
      "city": "Bilbao",
      "country": "Spain",
      "coordinates": [43.34595231661251, -3.0380467217989873],
      "img": "https://www.countryflagicons.com/SHINY/64/ES.png",
      "key": 498
    },
    {
      "name": "PortofSantander",
      "city": "Santander",
      "country": "Spain",
      "coordinates": [43.436773425820206, -3.8055339409285067],
      "img": "https://www.countryflagicons.com/SHINY/64/ES.png",
      "key": 499
    },
    {
      "name": "PortofAlicante",
      "city": "Alicante",
      "country": "Spain",
      "coordinates": [38.33647176618386, -0.4871829765097269],
      "img": "https://www.countryflagicons.com/SHINY/64/ES.png",
      "key": 500
    },
    {
      "name": "PortofGijon",
      "city": "Gijon",
      "country": "Spain",
      "coordinates": [43.55796813795431, -5.66710172832925],
      "img": "https://www.countryflagicons.com/SHINY/64/ES.png",
      "key": 501
    },
    {
      "name": "PortofSevilla",
      "city": "Sevilla",
      "country": "Spain",
      "coordinates": [37.36361081468625, -5.991338993778277],
      "img": "https://www.countryflagicons.com/SHINY/64/ES.png",
      "key": 502
    },
    {
      "name": "PortofCartagena",
      "city": "Gartgena",
      "country": "Spain",
      "coordinates": [10.405517942406746, -75.528723163581],
      "img": "https://www.countryflagicons.com/SHINY/64/ES.png",
      "key": 503
    },
    {
      "name": "PortofColombo",
      "city": "Colombo",
      "country": "Spain",
      "coordinates": [6.9383019232640075, 79.84642144616251],
      "img": "https://www.countryflagicons.com/SHINY/64/ES.png",
      "key": 504
    },
    {
      "name": "PortofSudan",
      "city": "PortofSudan",
      "country": "Spain",
      "coordinates": [19.59672954558868, 37.21393126672196],
      "img": "https://www.countryflagicons.com/SHINY/64/ES.png",
      "key": 505
    },
    {
      "name": "Paranam",
      "city": "Paranam",
      "country": "Suriname",
      "coordinates": [5.607465062169701, -55.09165060140151],
      "img": "https://www.countryflagicons.com/SHINY/64/SR.png",
      "key": 506
    },
    {
      "name": "PortofParamaribo",
      "city": "Paramaribo",
      "country": "Suriname",
      "coordinates": [5.828340449012843, -55.166542497130344],
      "img": "https://www.countryflagicons.com/SHINY/64/SR.png",
      "key": 507
    },
    {
      "name": "PortsofStockholm",
      "city": "Stockholm",
      "country": "Sweden",
      "coordinates": [59.37571148095586, 18.115914611249952],
      "img": "https://www.countryflagicons.com/SHINY/64/SE.png",
      "key": 508
    },
    {
      "name": "PortofGavle",
      "city": "Gavle",
      "country": "Sweden",
      "coordinates": [60.696816505826995, 17.222773617076374],
      "img": "https://www.countryflagicons.com/SHINY/64/SE.png",
      "key": 509
    },
    {
      "name": "Ajman",
      "city": "Ajman",
      "country": "UAE",
      "coordinates": [25.407952692228353, 55.51598731701189],
      "img": "https://www.countryflagicons.com/SHINY/64/AE.png",
      "key": 510
    },
    {
      "name": "Jabel Ali",
      "city": "Dubai",
      "country": "UAE",
      "coordinates": [25.023804780277082, 55.040277746033325],
      "img": "https://www.countryflagicons.com/SHINY/64/AE.png",
      "key": 511
    },
    {
      "name": "KhorAlFakkan",
      "city": "KhorFakkan",
      "country": "UAE",
      "coordinates": [25.34469515317777, 56.342918865147745],
      "img": "https://www.countryflagicons.com/SHINY/64/AE.png",
      "key": 512
    },
    {
      "name": "RasAlKhaimah",
      "city": "RasAlKhaimah",
      "country": "UAE",
      "coordinates": [25.808881363969373, 55.99565168236858],
      "img": "https://www.countryflagicons.com/SHINY/64/AE.png",
      "key": 513
    },
    {
      "name": "UmmAlQuwain",
      "city": "UmmAlQuwain",
      "country": "UAE",
      "coordinates": [25.555982144241057, 55.54894805069729],
      "img": "https://www.countryflagicons.com/SHINY/64/AE.png",
      "key": 514
    },
    {
      "name": "Dallas",
      "city": "Dallas",
      "country": "US",
      "coordinates": [32.77521217061793, -96.7934357269831],
      "img": "https://www.countryflagicons.com/SHINY/64/US.png",
      "key": 515
    },
    {
      "name": "Memphis",
      "city": "Memphis",
      "country": "US",
      "coordinates": [35.154341581139924, -90.03815226100275],
      "img": "https://www.countryflagicons.com/SHINY/64/US.png",
      "key": 516
    },
    {
      "name": "Houston",
      "city": "Houston",
      "country": "US",
      "coordinates": [29.763137292085162, -95.38215321627293],
      "img": "https://www.countryflagicons.com/SHINY/64/US.png",
      "key": 517
    },
    {
      "name": "Minneapolis/St.PaulApt",
      "city": "Minnesota/St.Paul",
      "country": "US",
      "coordinates": [44.976545027830646, -93.31820409821049],
      "img": "https://www.countryflagicons.com/SHINY/64/US.png",
      "key": 518
    },
    {
      "name": "Chicago",
      "city": "Chicago",
      "country": "US",
      "coordinates": [41.875200186375714, -87.60569653942733],
      "img": "https://www.countryflagicons.com/SHINY/64/US.png",
      "key": 519
    },
    {
      "name": "Indianapolis",
      "city": "Indianapolis",
      "country": "US",
      "coordinates": [39.7740410905038, -86.1863861087645],
      "img": "https://www.countryflagicons.com/SHINY/64/US.png",
      "key": 520
    },
    {
      "name": "Louisville",
      "city": "Louisville",
      "country": "US",
      "coordinates": [38.262783591653424, -85.79083319772833],
      "img": "https://www.countryflagicons.com/SHINY/64/US.png",
      "key": 521
    },
    {
      "name": "Freeport Harbor",
      "city": "Freeport",
      "country": "US",
      "coordinates": [26.520347766248957, -78.77099665064668],
      "img": "https://www.countryflagicons.com/SHINY/64/US.png",
      "key": 522
    },
    {
      "name": "NewOrleans",
      "city": "NewOrleans",
      "country": "US",
      "coordinates": [29.95646592876134, -90.04057957024169],
      "img": "https://www.countryflagicons.com/SHINY/64/US.png",
      "key": 523
    },
    {
      "name": "Cincinnati",
      "city": "Cincinnati",
      "country": "US",
      "coordinates": [39.10692521975074, -84.51638851697513],
      "img": "https://www.countryflagicons.com/SHINY/64/US.png",
      "key": 524
    },
    {
      "name": "Montevideo",
      "city": "Montevideo",
      "country": "Uruguay",
      "coordinates": [-34.90250574068643, -56.21259743450876],
      "img": "https://www.countryflagicons.com/SHINY/64/UY.png",
      "key": 525
    },
    {
      "name": "PortVila",
      "city": "PortVila",
      "country": "vanuatu",
      "coordinates": [-17.733002015042143, 168.32782111220453],
      "img": "https://www.countryflagicons.com/SHINY/64/VU.png",
      "key": 526
    },
    {
      "name": "DaNang",
      "city": "DaNang",
      "country": "Vietnam",
      "coordinates": [16.0596799926882, 108.21261188057632],
      "img": "https://www.countryflagicons.com/SHINY/64/GB.png",
      "key": 527
    },
    {
      "name": "NhaTrang",
      "city": "NhaTrang",
      "country": "Vietnam",
      "coordinates": [12.25807903115973, 109.17506641827285],
      "img": "https://www.countryflagicons.com/SHINY/64/GB.png",
      "key": 528
    },
    {
      "name": "DongNaiPort",
      "city": "BienHoa",
      "country": "Vietnam",
      "coordinates": [10.901084287488718, 106.84149392108158],
      "img": "https://www.countryflagicons.com/SHINY/64/GB.png",
      "key": 529
    },
    {
      "name": "BinhDuongPort",
      "city": "ThuDauMot",
      "country": "Vietnam",
      "coordinates": [10.919957725504474, 106.85409915183958],
      "img": "https://www.countryflagicons.com/SHINY/64/GB.png",
      "key": 530
    },
    {
      "name": "HoChiMinhCity",
      "city": "HoChiMinhCity",
      "country": "Vietnam",
      "coordinates": [10.843128963606649, 106.59869416817921],
      "img": "https://www.countryflagicons.com/SHINY/64/GB.png",
      "key": 531
    },
    {
      "name": "CatLai",
      "city": "HoChiMinhCity",
      "country": "Vietnam",
      "coordinates": [10.770919851766779, 106.7863379756928],
      "img": "https://www.countryflagicons.com/SHINY/64/GB.png",
      "key": 532
    },
    {
      "name": "CaiMep",
      "city": "BaRia-VungTau",
      "country": "Vietnam",
      "coordinates": [10.56474869875817, 107.05940269654252],
      "img": "https://www.countryflagicons.com/SHINY/64/GB.png",
      "key": 533
    },
    {
      "name": "VungTau",
      "city": "BaRia-VungTau",
      "country": "Vietnam",
      "coordinates": [10.412445283907468, 107.14364399741234],
      "img": "https://www.countryflagicons.com/SHINY/64/GB.png",
      "key": 534
    },
    {
      "name": "LaGuaira",
      "city": "LaGuaira",
      "country": "Venezuela",
      "coordinates": [10.603410176952195, -66.93115268932941],
      "img": "https://www.countryflagicons.com/SHINY/64/VE.png",
      "key": 535
    },
    {
      "name": "Guanta",
      "city": "Guanta",
      "country": "Venezuela",
      "coordinates": [10.233958048725908, -64.5910359796595],
      "img": "https://www.countryflagicons.com/SHINY/64/VE.png",
      "key": 536
    },
    {
      "name": "PuertoCabello",
      "city": "PuertoCabello",
      "country": "Venezuela",
      "coordinates": [10.46957791132879, -68.02893313218752],
      "img": "https://www.countryflagicons.com/SHINY/64/VE.png",
      "key": 537
    },
    {
      "name": "ElGuamache",
      "city": "ElGuamache",
      "country": "Venezuela",
      "coordinates": [10.895871673321015, -64.06557090531341],
      "img": "https://www.countryflagicons.com/SHINY/64/VE.png",
      "key": 538
    },
    {
      "name": "Guaraguao",
      "city": "Guaraguao",
      "country": "Venezuela",
      "coordinates": [9.294751647781908, -73.80058417504408],
      "img": "https://www.countryflagicons.com/SHINY/64/VE.png",
      "key": 539
    },
    {
      "name": "Maracaibo",
      "city": "Maracaibo",
      "country": "Venezuela",
      "coordinates": [10.64294956831041, -71.63576913525394],
      "img": "https://www.countryflagicons.com/SHINY/64/VE.png",
      "key": 540
    },
    {
      "name": "ElTablazo/Maracaibo",
      "city": "Maracaibo",
      "country": "Venezuela",
      "coordinates": [10.597320969190152, -71.64189668077681],
      "img": "https://www.countryflagicons.com/SHINY/64/VE.png",
      "key": 541
    },
    {
      "name": "Mukalla",
      "city": "Mukalla",
      "country": "yemen",
      "coordinates": [14.541711621490801, 49.12939574650319],
      "img": "https://www.countryflagicons.com/SHINY/64/YE.png",
      "key": 542
    },
    {
      "name": "Aden",
      "city": "Aden",
      "country": "yemen",
      "coordinates": [12.789856307917942, 45.02105418923063],
      "img": "https://www.countryflagicons.com/SHINY/64/YE.png",
      "key": 543
    },
    {
      "name": "Hodeidah",
      "city": "Hodeidah",
      "country": "yemen",
      "coordinates": [14.795659274466063, 42.97117150128617],
      "img": "https://www.countryflagicons.com/SHINY/64/YE.png",
      "key": 544
    },
    {
      "name": "PortofSodertalje",
      "city": "Sodertalje",
      "country": "Sweden",
      "coordinates": [59.1776049031581, 17.66526445694337],
      "img": "https://www.countryflagicons.com/SHINY/64/SE.png",
      "key": 545
    },
    {
      "name": "PortofNorrkoping",
      "city": "Norrkoping",
      "country": "Sweden",
      "coordinates": [59.563694508548664, 15.982387891213708],
      "img": "https://www.countryflagicons.com/SHINY/64/SE.png",
      "key": 546
    },
    {
      "name": "PortofSundsvall",
      "city": "Sundsvall",
      "country": "Sweden",
      "coordinates": [63.11865633709818, 17.767893716303973],
      "img": "https://www.countryflagicons.com/SHINY/64/SE.png",
      "key": 547
    },
    {
      "name": "PortofUmea",
      "city": "Umea",
      "country": "Sweden",
      "coordinates": [63.84144037503085, 20.25766163565584],
      "img": "https://www.countryflagicons.com/SHINY/64/SE.png",
      "key": 548
    },
    {
      "name": "PortofUddevalla",
      "city": "Uddevalla",
      "country": "Sweden",
      "coordinates": [58.35163457528761, 11.915013196687072],
      "img": "https://www.countryflagicons.com/SHINY/64/SE.png",
      "key": 549
    },
    {
      "name": "PortofGoteborg",
      "city": "Goteborg",
      "country": "Sweden",
      "coordinates": [57.702782930099616, 11.948117843814538],
      "img": "https://www.countryflagicons.com/SHINY/64/SE.png",
      "key": 550
    },
    {
      "name": "PortofKarlshamn",
      "city": "Karlshamn",
      "country": "Sweden",
      "coordinates": [56.162754176946585, 14.816721842533875],
      "img": "https://www.countryflagicons.com/SHINY/64/SE.png",
      "key": 551
    },
    {
      "name": "PortofHalmstad",
      "city": "Halmstad",
      "country": "Sweden",
      "coordinates": [57.68238565420821, 13.097095252740889],
      "img": "https://www.countryflagicons.com/SHINY/64/SE.png",
      "key": 552
    },
    {
      "name": "PortofMuttenz-Au",
      "city": "Muttenz-Au",
      "country": "Sweden",
      "coordinates": [47.533651951389324, 7.64783471077105],
      "img": "https://www.countryflagicons.com/SHINY/64/SE.png",
      "key": 553
    },
    {
      "name": "Zurich",
      "city": "Zurich",
      "country": "Sweden",
      "coordinates": [47.37950451800182, 8.538791109322016],
      "img": "https://www.countryflagicons.com/SHINY/64/SE.png",
      "key": 554
    },
    {
      "name": "PortofTartous",
      "city": "Tartous",
      "country": "Syria",
      "coordinates": [34.89544956785942, 35.87348905079758],
      "img": "https://www.countryflagicons.com/SHINY/64/SY.png",
      "key": 555
    },
    {
      "name": "PortofLattakia",
      "city": "Lattakia",
      "country": "Syria",
      "coordinates": [35.53232749273326, 35.77477201031324],
      "img": "https://www.countryflagicons.com/SHINY/64/SY.png",
      "key": 556
    }
  ]